{"filter_array":[{"name":"Village Square Leisure Centre","address":"2623 56 St NECalgary, Alberta T1Y 6E7, Canada","country":"Canada","region":"Alberta","city":"Calgary","latitude":"51.07545","longitude":"-113.95276","type":"Water & Amusement Parks","neighbourhood":"Rundle / Whitehorn / Monterey Park"},{"name":"Enmax Spirit of the Night","address":"11550 68 St SECalgary, Alberta T2Z 3E8, Canada","country":"Canada","region":"Alberta","city":"Calgary","latitude":"50.949432","longitude":"-113.93503","type":"Water & Amusement Parks","neighbourhood":"Douglas Glen / McKenzie Lake"},{"name":"Heritage Park Historical Village","address":"1900 Heritage Dr SWCalgary, Alberta T2V 2X3, Canada","country":"Canada","region":"Alberta","city":"Calgary","latitude":"50.98252","longitude":"-114.10108","type":"Sights & Landmarks","neighbourhood":"Oak Ridge / Haysboro / Kingsland"},{"name":"Bowness Park","address":"8900 48 Ave NWCalgary, Alberta T3B 2B2, Canada","country":"Canada","region":"Alberta","city":"Calgary","latitude":"51.09642","longitude":"-114.21606","type":"Sights & Landmarks","neighbourhood":"Montgomery / Bowness / Silver Springs "},{"name":"Conversation Sculpture","address":"200 8 Ave SWCalgary, Alberta T2P 1B5, Canada","country":"Canada","region":"Alberta","city":"Calgary","latitude":"51.04575","longitude":"-114.06609","type":"Sights & Landmarks","neighbourhood":"City Centre / Calgary Tower"},{"name":"Famous Five Statues","address":"8 Ave SECalgary, Alberta T2G 0K7, Canada","country":"Canada","region":"Alberta","city":"Calgary","latitude":"51.04553","longitude":"-114.05994","type":"Sights & Landmarks","neighbourhood":"Inglewood / Burnsland / Chinatown"},{"name":"Wonderland Sculpture","address":"500 Centre St SECalgary, Alberta T2G 1A6, Canada","country":"Canada","region":"Alberta","city":"Calgary","latitude":"51.0477","longitude":"-114.06267","type":"Sights & Landmarks","neighbourhood":"Inglewood / Burnsland / Chinatown"},{"name":"Knox United Church","address":"506 4 St SWCalgary, Alberta T2P 1S7, Canada","country":"Canada","region":"Alberta","city":"Calgary","latitude":"51.04795","longitude":"-114.07122","type":"Sights & Landmarks","neighbourhood":"City Centre / Calgary Tower"},{"name":"Calgary Tower","address":"101 9 Ave SWCalgary, Alberta T2P 1J9, Canada","country":"Canada","region":"Alberta","city":"Calgary","latitude":"51.04438","longitude":"-114.06313","type":"Sights & Landmarks","neighbourhood":"City Centre / Calgary Tower"},{"name":"The Bow (Skyscraper)","address":"500 Centre St SECalgary, Alberta T2G 1A6, Canada","country":"Canada","region":"Alberta","city":"Calgary","latitude":"51.0477","longitude":"-114.06267","type":"Sights & Landmarks","neighbourhood":"Inglewood / Burnsland / Chinatown"},{"name":"University of Calgary","address":"2500 University Dr NWCalgary, Alberta T2N 1N4, Canada","country":"Canada","region":"Alberta","city":"Calgary","latitude":"51.07462","longitude":"-114.12839","type":"Sights & Landmarks","neighbourhood":"Kensington / Westmont / Parkdale"},{"name":"Kensington","address":"1131 Kensington Rd NW Th 10Calgary, Alberta T2N 3P4, Canada","country":"Canada","region":"Alberta","city":"Calgary","latitude":"51.05226","longitude":"-114.08778","type":"Sights & Landmarks","neighbourhood":"Kensington / Westmont / Parkdale"},{"name":"Stephen Avenue Walk","address":"8 Ave SWCalgary, Alberta T2P 1B3, Canada","country":"Canada","region":"Alberta","city":"Calgary","latitude":"51.04609","longitude":"-114.06607","type":"Sights & Landmarks","neighbourhood":"City Centre / Calgary Tower"},{"name":"Olympic Plaza","address":"7th Ave. SE and Macleod Trail SECalgary, Alberta T2N 1J9, Canada","country":"Canada","region":"Alberta","city":"Calgary","latitude":"51.04633","longitude":"-114.05806","type":"Sights & Landmarks","neighbourhood":"Kensington / Westmont / Parkdale"},{"name":"Lougheed House","address":"707-13 Avenue SWCalgary, Alberta T2R 0K8, Canada","country":"Canada","region":"Alberta","city":"Calgary","latitude":"51.040707","longitude":"-114.076805","type":"Sights & Landmarks","neighbourhood":"Connaught / West Victoria Park"},{"name":"The Scotiabank Saddledome","address":"555 Saddledome Rise SECalgary, Alberta T2G 2W1, Canada","country":"Canada","region":"Alberta","city":"Calgary","latitude":"51.03698","longitude":"-114.05316","type":"Sights & Landmarks","neighbourhood":"Inglewood / Burnsland / Chinatown"},{"name":"Fort Calgary","address":"750 9th Ave SECalgary, Alberta T2P 2M5, Canada","country":"Canada","region":"Alberta","city":"Calgary","latitude":"51.04411","longitude":"-114.04522","type":"Sights & Landmarks","neighbourhood":"City Centre / Calgary Tower"},{"name":"Olympic Oval","address":"2500 University Dr NWCalgary, Alberta T2N 1N4, Canada","country":"Canada","region":"Alberta","city":"Calgary","latitude":"51.07462","longitude":"-114.12839","type":"Sights & Landmarks","neighbourhood":"Kensington / Westmont / Parkdale"},{"name":"Armengol Statues","address":"515 Macleod Trail SECalgary, Alberta T2G 2L9, Canada","country":"Canada","region":"Alberta","city":"Calgary","latitude":"51.04773","longitude":"-114.05824","type":"Sights & Landmarks","neighbourhood":"Inglewood / Burnsland / Chinatown"},{"name":"YouthLink Calgary Police Interpretive Centre","address":"5111 47 St NECalgary, Alberta T3J 3R2, Canada","country":"Canada","region":"Alberta","city":"Calgary","latitude":"51.098885","longitude":"-113.966156","type":"Sights & Landmarks","neighbourhood":"Martindale / Taradale / Falconridge"},{"name":"Calgary Outdoor Centre-University of Calgary","address":"2500 University Dr NWCalgary, Alberta T2N 1N4, Canada","country":"Canada","region":"Alberta","city":"Calgary","latitude":"51.07462","longitude":"-114.12839","type":"Sights & Landmarks","neighbourhood":"Kensington / Westmont / Parkdale"},{"name":"Chinese Cultural Centre","address":"191 1st Street SWCalgary, Alberta T2P 4M4, Canada","country":"Canada","region":"Alberta","city":"Calgary","latitude":"51.05128","longitude":"-114.06521","type":"Sights & Landmarks","neighbourhood":"City Centre / Calgary Tower"},{"name":"Centre Street Church","address":"3900 2 St NECalgary, Alberta T2E 9C1, Canada","country":"Canada","region":"Alberta","city":"Calgary","latitude":"51.08742","longitude":"-114.05725","type":"Sights & Landmarks","neighbourhood":"Bridgeland / Greenview / Zoo / YYC"},{"name":"Fourth Street","address":"Calgary, Alberta T2S 1W9, Canada","country":"Canada","region":"Alberta","city":"Calgary","latitude":"51.033863","longitude":"-114.07166","type":"Sights & Landmarks","neighbourhood":"Elbow Park / Britannia / Parkhill"},{"name":"McMahon Stadium","address":"1817 Crowchild Trail NWCalgary, Alberta T2M 4R6, Canada","country":"Canada","region":"Alberta","city":"Calgary","latitude":"51.07064","longitude":"-114.11823","type":"Sights & Landmarks","neighbourhood":"Mount Pleasant / Capitol Hill"},{"name":"The Calgary Zoo","address":"1300 Zoo Rd NECalgary, Alberta T2E 7V6, Canada","country":"Canada","region":"Alberta","city":"Calgary","latitude":"51.04527","longitude":"-114.02872","type":"Zoos & Aquariums","neighbourhood":"Bridgeland / Greenview / Zoo / YYC"},{"name":"The Military Museums","address":"4520 Crowchild Trail SWCalgary, Alberta T2T 5J4, Canada","country":"Canada","region":"Alberta","city":"Calgary","latitude":"51.013985","longitude":"-114.11667","type":"Museums","neighbourhood":"Altadore / Bankview / Richmond"},{"name":"Studio Bell, home of the National Music Centre","address":"850 4 Street SECalgary, Alberta T2G 1R1, Canada","country":"Canada","region":"Alberta","city":"Calgary","latitude":"51.044544","longitude":"-114.053","type":"Museums","neighbourhood":"Inglewood / Burnsland / Chinatown"},{"name":"Gasoline Alley Museum","address":"1900 Heritage Dr SWCalgary, Alberta T2V 2X3, Canada","country":"Canada","region":"Alberta","city":"Calgary","latitude":"50.982838","longitude":"-114.10208","type":"Museums","neighbourhood":"Oak Ridge / Haysboro / Kingsland"},{"name":"Glenbow Museum","address":"130 9 Ave SECalgary, Alberta T2G 0P3, Canada","country":"Canada","region":"Alberta","city":"Calgary","latitude":"51.04514","longitude":"-114.06165","type":"Museums","neighbourhood":"Inglewood / Burnsland / Chinatown"},{"name":"Canada's Sports Hall of Fame","address":"169 Canada Olympic Rd SWCalgary, Alberta T3B 6B7, Canada","country":"Canada","region":"Alberta","city":"Calgary","latitude":"51.083004","longitude":"-114.22048","type":"Museums","neighbourhood":"Montgomery / Bowness / Silver Springs "},{"name":"YouthLink Calgary Police Interpretive Centre","address":"5111 47 St NECalgary, Alberta T3J 3R2, Canada","country":"Canada","region":"Alberta","city":"Calgary","latitude":"51.098885","longitude":"-113.966156","type":"Sights & Landmarks","neighbourhood":"Martindale / Taradale / Falconridge"},{"name":"The Hangar Flight Museum","address":"4629 McCall Way NECalgary, Alberta T2E 8A5, Canada","country":"Canada","region":"Alberta","city":"Calgary","latitude":"51.094185","longitude":"-114.013725","type":"Museums","neighbourhood":"Bridgeland / Greenview / Zoo / YYC"},{"name":"TELUS Spark","address":"220 St Georges Dr NECalgary, Alberta T2E 5T2, Canada","country":"Canada","region":"Alberta","city":"Calgary","latitude":"51.0537","longitude":"-114.0249","type":"Museums","neighbourhood":"Bridgeland / Greenview / Zoo / YYC"},{"name":"Esker Foundation","address":"444-1011 9 Ave SECalgary, Alberta T2G 0H7, Canada","country":"Canada","region":"Alberta","city":"Calgary","latitude":"51.04255","longitude":"-114.03871","type":"Museums","neighbourhood":"Inglewood / Burnsland / Chinatown"},{"name":"Gainsborough Galleries Ltd.","address":"441 5 Ave SWCalgary, Alberta T2P 2V1, Canada","country":"Canada","region":"Alberta","city":"Calgary","latitude":"51.0484","longitude":"-114.07111","type":"Museums","neighbourhood":"City Centre / Calgary Tower"},{"name":"Rothney Astrophysical Observatory","address":"Hwy 22, 2.4 km south of Hwy 22XCalgary, Alberta T0L 0C5, Canada","country":"Canada","region":"Alberta","city":"Calgary","latitude":"50.89229","longitude":"-114.29033","type":"Museums","neighbourhood":"Claresholm"},{"name":"Studio Bell","address":"850 4 Street SECalgary, Alberta T2G 1R1, Canada","country":"Canada","region":"Alberta","city":"Calgary","latitude":"51.04458","longitude":"-114.05264","type":"Museums","neighbourhood":"Inglewood / Burnsland / Chinatown"},{"name":"Nickle Galleries","address":"2500 University Dr NWCalgary, Alberta T2N 1N4, Canada","country":"Canada","region":"Alberta","city":"Calgary","latitude":"51.07462","longitude":"-114.12839","type":"Museums","neighbourhood":"Kensington / Westmont / Parkdale"},{"name":"Paul Kuhn Art Gallery","address":"724 11th Ave SWCalgary, Alberta T2R 0E4, Canada","country":"Canada","region":"Alberta","city":"Calgary","latitude":"51.0429","longitude":"-114.077736","type":"Museums","neighbourhood":"Connaught / West Victoria Park"},{"name":"Chinese Cultural Centre Museum","address":"Calgary Chinese Cultural Cntre 197 1 St SWCalgary, Alberta T2P 4M4, Canada","country":"Canada","region":"Alberta","city":"Calgary","latitude":"51.05125","longitude":"-114.06543","type":"Museums","neighbourhood":"City Centre / Calgary Tower"},{"name":"Grain Academy Museum","address":"Plus 15, BMO Centre 20 Roundup Way S.E.Calgary, Alberta T2G 2W1, Canada","country":"Canada","region":"Alberta","city":"Calgary","latitude":"51.038197","longitude":"-114.0565","type":"Museums","neighbourhood":"Inglewood / Burnsland / Chinatown"},{"name":"Art Gallery of Calgary","address":"117 8 Ave SWCalgary, Alberta T2P 1B4, Canada","country":"Canada","region":"Alberta","city":"Calgary","latitude":"51.04548","longitude":"-114.06418","type":"Museums","neighbourhood":"City Centre / Calgary Tower"},{"name":"Tsuu T'ina Culture Museum","address":"3700 Anderson Rd SWCalgary, Alberta T2W 3C4, Canada","country":"Canada","region":"Alberta","city":"Calgary","latitude":"50.94996","longitude":"-114.142","type":"Museums","neighbourhood":"Braeside / Woodbine"},{"name":"The New Gallery","address":"3A-200 Barclay Parade SWCalgary, Alberta T2P 4R5, Canada","country":"Canada","region":"Alberta","city":"Calgary","latitude":"51.05237","longitude":"-114.06889","type":"Museums","neighbourhood":"City Centre / Calgary Tower"},{"name":"Calgary SpacePort","address":"2000-2000 Airport Rd NECalgary, Alberta T2E 6W5, Canada","country":"Canada","region":"Alberta","city":"Calgary","latitude":"51.13098","longitude":"-114.00835","type":"Museums","neighbourhood":"Bridgeland / Greenview / Zoo / YYC"},{"name":"Bearclaw Gallery","address":"1301 17 Ave SWCalgary, Alberta T2T 0C4, Canada","country":"Canada","region":"Alberta","city":"Calgary","latitude":"51.03757","longitude":"-114.09186","type":"Museums","neighbourhood":"Altadore / Bankview / Richmond"},{"name":"Artpoint Gallery and Studio Society","address":"1139 11 St SECalgary, Alberta T2G 3G1, Canada","country":"Canada","region":"Alberta","city":"Calgary","latitude":"51.03876","longitude":"-114.03667","type":"Museums","neighbourhood":"Inglewood / Burnsland / Chinatown"},{"name":"Creative Kids Museum","address":"220 St Georges Dr NECalgary, Alberta T2E 5T2, Canada","country":"Canada","region":"Alberta","city":"Calgary","latitude":"51.05368","longitude":"-114.02619","type":"Museums","neighbourhood":"Bridgeland / Greenview / Zoo / YYC"},{"name":"Artisan Gardens","address":"315 Deercliff Rd SECalgary, Alberta T2J 5K6, Canada","country":"Canada","region":"Alberta","city":"Calgary","latitude":"50.92959","longitude":"-114.01524","type":"Museums","neighbourhood":"Queensland Downs / Lake Bonavista"},{"name":"Art is Vital Gallery","address":"110 8th Ave SWCalgary, Alberta T2P 1B3, Canada","country":"Canada","region":"Alberta","city":"Calgary","latitude":"51.04578","longitude":"-114.06369","type":"Museums","neighbourhood":"City Centre / Calgary Tower"},{"name":"Nova Gallery","address":"1635 17th Ave SWCalgary, Alberta T2T 0E5, Canada","country":"Canada","region":"Alberta","city":"Calgary","latitude":"51.03757","longitude":"-114.09979","type":"Museums","neighbourhood":"Altadore / Bankview / Richmond"},{"name":"Art Mode Gallery","address":"399 17th Avenue SWCalgary, Alberta T2S 0A5, Canada","country":"Canada","region":"Alberta","city":"Calgary","latitude":"51.037685","longitude":"-114.07001","type":"Museums","neighbourhood":"Elbow Park / Britannia / Parkhill"},{"name":"Diana Paul Galleries Ltd.","address":"314 4th Avenue SWCalgary, Alberta T2P 0H7, Canada","country":"Canada","region":"Alberta","city":"Calgary","latitude":"51.049606","longitude":"-114.06822","type":"Museums","neighbourhood":"City Centre / Calgary Tower"},{"name":"Avenida Art Gallery","address":"200 Barclay Parade SWCalgary, Alberta T2P 4R5, Canada","country":"Canada","region":"Alberta","city":"Calgary","latitude":"51.05237","longitude":"-114.06889","type":"Museums","neighbourhood":"City Centre / Calgary Tower"},{"name":"The Centre Gallery","address":"924 - 6 Ave SWCalgary, Alberta T2P 0V5, Canada","country":"Canada","region":"Alberta","city":"Calgary","latitude":"51.048035","longitude":"-114.08285","type":"Museums","neighbourhood":"City Centre / Calgary Tower"},{"name":"Heritage Park Historical Village","address":"1900 Heritage Dr SWCalgary, Alberta T2V 2X3, Canada","country":"Canada","region":"Alberta","city":"Calgary","latitude":"50.98252","longitude":"-114.10108","type":"Sights & Landmarks","neighbourhood":"Oak Ridge / Haysboro / Kingsland"},{"name":"Fish Creek Provincial Park","address":"13931 Woodpath Rd SWCalgary, Alberta T2W 5R6, Canada","country":"Canada","region":"Alberta","city":"Calgary","latitude":"50.929","longitude":"-114.13206","type":"Nature & Parks","neighbourhood":"Braeside / Woodbine"},{"name":"Calgary Pathway System","address":"Calgary, Alberta T2P 2M5, Canada","country":"Canada","region":"Alberta","city":"Calgary","latitude":"51.048504","longitude":"-114.07101","type":"Nature & Parks","neighbourhood":"City Centre / Calgary Tower"},{"name":"Prince's Island Park","address":"200 Barclay Parade SWCalgary, Alberta T2P 4R5, Canada","country":"Canada","region":"Alberta","city":"Calgary","latitude":"51.05237","longitude":"-114.06889","type":"Nature & Parks","neighbourhood":"City Centre / Calgary Tower"},{"name":"The Calgary Zoo","address":"1300 Zoo Rd NECalgary, Alberta T2E 7V6, Canada","country":"Canada","region":"Alberta","city":"Calgary","latitude":"51.04527","longitude":"-114.02872","type":"Zoos & Aquariums","neighbourhood":"Bridgeland / Greenview / Zoo / YYC"},{"name":"Edworthy Park & Douglas Fir Trail","address":"Spruce DriveCalgary, Alberta T2N 0C0, Canada","country":"Canada","region":"Alberta","city":"Calgary","latitude":"51.05234","longitude":"-114.15083","type":"Nature & Parks","neighbourhood":"Kensington / Westmont / Parkdale"},{"name":"Bowness Park","address":"8900 48 Ave NWCalgary, Alberta T3B 2B2, Canada","country":"Canada","region":"Alberta","city":"Calgary","latitude":"51.09642","longitude":"-114.21606","type":"Sights & Landmarks","neighbourhood":"Montgomery / Bowness / Silver Springs "},{"name":"Nose Hill Park","address":"5620 14 St NWCalgary, Alberta T2N 4C9, Canada","country":"Canada","region":"Alberta","city":"Calgary","latitude":"51.11424","longitude":"-114.11133","type":"Nature & Parks","neighbourhood":"Kensington / Westmont / Parkdale"},{"name":"Inglewood Bird Sanctuary and Nature Centre","address":"2425 9 Ave SECalgary, Alberta T2G 4T4, Canada","country":"Canada","region":"Alberta","city":"Calgary","latitude":"51.02989","longitude":"-114.00889","type":"Nature & Parks","neighbourhood":"Inglewood / Burnsland / Chinatown"},{"name":"Confederation Park","address":"10 St and 24 Ave NWCalgary, Alberta T2K 1H2, Canada","country":"Canada","region":"Alberta","city":"Calgary","latitude":"51.074375","longitude":"-114.06278","type":"Nature & Parks","neighbourhood":"Thornecliffe / Tuxedo"},{"name":"Bow Habitat Station","address":"1440 17a St SECalgary, Alberta T2G 4T9, Canada","country":"Canada","region":"Alberta","city":"Calgary","latitude":"51.042065","longitude":"-114.01755","type":"Nature & Parks","neighbourhood":"Inglewood / Burnsland / Chinatown"},{"name":"North Glenmore Park","address":"7305 Crowchild Trail SWCalgary, Alberta T3E 5N5, Canada","country":"Canada","region":"Alberta","city":"Calgary","latitude":"50.99134","longitude":"-114.11805","type":"Nature & Parks","neighbourhood":"Lakeview / Glendale / Killarney"},{"name":"Fort Calgary","address":"750 9th Ave SECalgary, Alberta T2P 2M5, Canada","country":"Canada","region":"Alberta","city":"Calgary","latitude":"51.04411","longitude":"-114.04522","type":"Sights & Landmarks","neighbourhood":"City Centre / Calgary Tower"},{"name":"South Glenmore Park","address":"90th Ave & 24 Street SWCalgary, Alberta T2N 1J4, Canada","country":"Canada","region":"Alberta","city":"Calgary","latitude":"50.90025","longitude":"-114.11711","type":"Nature & Parks","neighbourhood":"Kensington / Westmont / Parkdale"},{"name":"Riley Park","address":"800 12 St NWCalgary, Alberta T2N 1W3, Canada","country":"Canada","region":"Alberta","city":"Calgary","latitude":"51.05855","longitude":"-114.09178","type":"Nature & Parks","neighbourhood":"Kensington / Westmont / Parkdale"},{"name":"Reader Rock Garden","address":"325 25 Ave. S.E.Calgary, Alberta T2G 5V1, Canada","country":"Canada","region":"Alberta","city":"Calgary","latitude":"51.03075","longitude":"-114.05771","type":"Nature & Parks","neighbourhood":"Inglewood / Burnsland / Chinatown"},{"name":"Calgary Sandy Beach Park","address":"4500 14A St. S.W.Calgary, Alberta T2T 2V8, Canada","country":"Canada","region":"Alberta","city":"Calgary","latitude":"51.01424","longitude":"-114.09615","type":"Nature & Parks","neighbourhood":"Altadore / Bankview / Richmond"},{"name":"St. Patrick's Island","address":"1300 Zoo Rd NECalgary, Alberta T2E 7V6, Canada","country":"Canada","region":"Alberta","city":"Calgary","latitude":"51.044933","longitude":"-114.03085","type":"Nature & Parks","neighbourhood":"Bridgeland / Greenview / Zoo / YYC"},{"name":"Chestermere Lake","address":"105 Marina RdCalgary, Alberta T1X 1V7, Canada","country":"Canada","region":"Alberta","city":"Calgary","latitude":"51.05332","longitude":"-113.82447","type":"Nature & Parks","neighbourhood":"Chestermere"},{"name":"Devonian Gardens","address":"317 7 Ave SWCalgary, Alberta T6G 2E1, Canada","country":"Canada","region":"Alberta","city":"Calgary","latitude":"51.046467","longitude":"-114.068245","type":"Nature & Parks","neighbourhood":"West University / Strathcona Place"},{"name":"Central Memorial Park","address":"1221 2 St SWCalgary, Alberta T2R 0W5, Canada","country":"Canada","region":"Alberta","city":"Calgary","latitude":"51.04108","longitude":"-114.06863","type":"Nature & Parks","neighbourhood":"Connaught / West Victoria Park"},{"name":"Glenmore Reservoir","address":"1900 Heritage Dr SWCalgary, Alberta T2V 2X3, Canada","country":"Canada","region":"Alberta","city":"Calgary","latitude":"50.986","longitude":"-114.10424","type":"Nature & Parks","neighbourhood":"Oak Ridge / Haysboro / Kingsland"},{"name":"St. Lawrence Market","address":"92-95 Front St. E.Toronto, Ontario M5E 1C4, Canada","country":"Canada","region":"Ontario","city":"Toronto","latitude":"43.64877","longitude":"-79.37164","type":"Sights & Landmarks","neighbourhood":"Berczy Park"},{"name":"CN Tower","address":"301 Front St WToronto, Ontario M5V 2T6, Canada","country":"Canada","region":"Ontario","city":"Toronto","latitude":"43.6426","longitude":"-79.3871","type":"Sights & Landmarks","neighbourhood":"CN Tower / King and Spadina"},{"name":"Royal Conservatory of Music","address":"273 Bloor St WToronto, Ontario M5S 1W2, Canada","country":"Canada","region":"Ontario","city":"Toronto","latitude":"43.66786","longitude":"-79.39602","type":"Sights & Landmarks","neighbourhood":"University of Toronto / Harbord"},{"name":"Escape Casa Loma: Secret City Adventures","address":"1 Austin TerrToronto, Ontario M5R 1X8, Canada","country":"Canada","region":"Ontario","city":"Toronto","latitude":"43.67811","longitude":"-79.40948","type":"Sights & Landmarks","neighbourhood":"The Annex/ Midtown / Yorkville"},{"name":"University of Toronto","address":"27 King's College CirToronto, Ontario M5S 1A1, Canada","country":"Canada","region":"Ontario","city":"Toronto","latitude":"43.66095","longitude":"-79.39605","type":"Sights & Landmarks","neighbourhood":"University of Toronto / Harbord"},{"name":"The Air Canada Centre","address":"40 Bay StToronto, Ontario M5J 2X2, Canada","country":"Canada","region":"Ontario","city":"Toronto","latitude":"43.64344","longitude":"-79.37896","type":"Sights & Landmarks","neighbourhood":"Harbourfront East / Union Station"},{"name":"Scarborough Bluffs","address":"1 Brimley Rd SToronto, Ontario M1M 3W3, Canada","country":"Canada","region":"Ontario","city":"Toronto","latitude":"43.7062","longitude":"-79.23493","type":"Sights & Landmarks","neighbourhood":"Cliffside / Scarborough Village"},{"name":"Distillery Historic District","address":"55 Mill StToronto, Ontario M5A 3C4, Canada","country":"Canada","region":"Ontario","city":"Toronto","latitude":"43.65067","longitude":"-79.35905","type":"Sights & Landmarks","neighbourhood":"Regent Park / Port of Toronto"},{"name":"Spadina Museum","address":"285 Spadina RdToronto, Ontario M5R 2V5, Canada","country":"Canada","region":"Ontario","city":"Toronto","latitude":"43.67903","longitude":"-79.40829","type":"Sights & Landmarks","neighbourhood":"The Annex/ Midtown / Yorkville"},{"name":"Rogers Centre","address":"3200-1 Blue Jays WayToronto, Ontario M5V 1J1, Canada","country":"Canada","region":"Ontario","city":"Toronto","latitude":"43.64203","longitude":"-79.3906","type":"Sights & Landmarks","neighbourhood":"CN Tower / King and Spadina"},{"name":"The Beach Village","address":"1971 Queen St EToronto, Ontario M4L 1H9, Canada","country":"Canada","region":"Ontario","city":"Toronto","latitude":"43.66949","longitude":"-79.30114","type":"Sights & Landmarks","neighbourhood":"India Bazaar / The Beaches West"},{"name":"The Elgin & Winter Garden Theatre Centre","address":"189 Yonge StToronto, Ontario M5B 1M4, Canada","country":"Canada","region":"Ontario","city":"Toronto","latitude":"43.65306","longitude":"-79.37916","type":"Sights & Landmarks","neighbourhood":"Ryerson"},{"name":"Bloor West Village","address":"Bloor St. W.Toronto, Ontario M6S 1N8, Canada","country":"Canada","region":"Ontario","city":"Toronto","latitude":"43.65085","longitude":"-79.47757","type":"Sights & Landmarks","neighbourhood":"Bloor West Village / Swansea"},{"name":"Nathan Phillips Square","address":"100 Queen St WToronto, Ontario M5H 2N1, Canada","country":"Canada","region":"Ontario","city":"Toronto","latitude":"43.65257","longitude":"-79.38371","type":"Sights & Landmarks","neighbourhood":"Richmond / Adelaide / King"},{"name":"St James Anglican Cathedral","address":"65 Church StToronto, Ontario M5C 2E9, Canada","country":"Canada","region":"Ontario","city":"Toronto","latitude":"43.65027","longitude":"-79.37431","type":"Sights & Landmarks","neighbourhood":"St. James Park"},{"name":"New City Hall","address":"New City Hall-Metro 100 Queen St WToronto, Ontario M5H 2N1, Canada","country":"Canada","region":"Ontario","city":"Toronto","latitude":"43.651672","longitude":"-79.38333","type":"Sights & Landmarks","neighbourhood":"Richmond / Adelaide / King"},{"name":"Casa Loma","address":"1 Austin TerraceToronto, Ontario M5R 1X8, Canada","country":"Canada","region":"Ontario","city":"Toronto","latitude":"43.67883","longitude":"-79.40874","type":"Sights & Landmarks","neighbourhood":"The Annex/ Midtown / Yorkville"},{"name":"Old City Hall","address":"60 Queen St WToronto, Ontario M5H 2M3, Canada","country":"Canada","region":"Ontario","city":"Toronto","latitude":"43.6521","longitude":"-79.38171","type":"Sights & Landmarks","neighbourhood":"Richmond / Adelaide / King"},{"name":"Harbourfront Centre","address":"235 Queens Quay WToronto, Ontario M5J 2G8, Canada","country":"Canada","region":"Ontario","city":"Toronto","latitude":"43.63923","longitude":"-79.38307","type":"Sights & Landmarks","neighbourhood":"Harbourfront East / Union Station"},{"name":"Black Creek Pioneer Village","address":"1000 Murray Ross PkyToronto, Ontario M3J 2P3, Canada","country":"Canada","region":"Ontario","city":"Toronto","latitude":"43.77327","longitude":"-79.51662","type":"Sights & Landmarks","neighbourhood":"Northwood Park / York University"},{"name":"Evergreen Brick Works","address":"550 Bayview AveToronto, Ontario M4W 3X8, Canada","country":"Canada","region":"Ontario","city":"Toronto","latitude":"43.68378","longitude":"-79.36559","type":"Sights & Landmarks","neighbourhood":"Rosedale"},{"name":"Mount Pleasant Cemetery","address":"375 Mount Pleasant RdToronto, Ontario M4T 2V8, Canada","country":"Canada","region":"Ontario","city":"Toronto","latitude":"43.69539","longitude":"-79.38488","type":"Sights & Landmarks","neighbourhood":"Moore Park / Summerhill East"},{"name":"Greektown on the Danforth","address":"1675 Danforth AveToronto, Ontario M4C 5P2, Canada","country":"Canada","region":"Ontario","city":"Toronto","latitude":"43.68364","longitude":"-79.32131","type":"Sights & Landmarks","neighbourhood":"Woodbine Heights"},{"name":"Fantasy Fair at Woodbine Centre","address":"500 Rexdale BlvdToronto, Ontario M9W 6K5, Canada","country":"Canada","region":"Ontario","city":"Toronto","latitude":"43.72048","longitude":"-79.59997","type":"Water & Amusement Parks","neighbourhood":"Humberwood / Woodbine Downs"},{"name":"Centreville Theme Park","address":"21 Avenue Of The IslandsToronto, Ontario M5J 1A1, Canada","country":"Canada","region":"Ontario","city":"Toronto","latitude":"43.618195","longitude":"-79.37269","type":"Water & Amusement Parks","neighbourhood":"Harbourfront East / Union Station"},{"name":"The AGO, Art Gallery of Ontario","address":"317 Dundas St WToronto, Ontario M5T 1G4, Canada","country":"Canada","region":"Ontario","city":"Toronto","latitude":"43.65391","longitude":"-79.39269","type":"Museums","neighbourhood":"Kensington Market / Chinatown"},{"name":"Hockey Hall of Fame","address":"Brookfield Place - Concourse LevelToronto, Ontario M5E 1X8, Canada","country":"Canada","region":"Ontario","city":"Toronto","latitude":"43.646942","longitude":"-79.37749","type":"Museums","neighbourhood":"Berczy Park"},{"name":"Spadina Museum","address":"285 Spadina RdToronto, Ontario M5R 2V5, Canada","country":"Canada","region":"Ontario","city":"Toronto","latitude":"43.67903","longitude":"-79.40829","type":"Sights & Landmarks","neighbourhood":"The Annex/ Midtown / Yorkville"},{"name":"Royal Ontario Museum","address":"100 Queen's PkToronto, Ontario M5S 2C6, Canada","country":"Canada","region":"Ontario","city":"Toronto","latitude":"43.668312","longitude":"-79.39485","type":"Museums","neighbourhood":"University of Toronto / Harbord"},{"name":"Aga Khan Museum","address":"77 Wynford DrToronto, Ontario M3C 1K1, Canada","country":"Canada","region":"Ontario","city":"Toronto","latitude":"43.725105","longitude":"-79.33207","type":"Museums","neighbourhood":"Flemingdon Park"},{"name":"Bata Shoe Museum","address":"327 Bloor St WToronto, Ontario M5S 1W7, Canada","country":"Canada","region":"Ontario","city":"Toronto","latitude":"43.667408","longitude":"-79.39998","type":"Museums","neighbourhood":"University of Toronto / Harbord"},{"name":"Casa Loma","address":"1 Austin TerraceToronto, Ontario M5R 1X8, Canada","country":"Canada","region":"Ontario","city":"Toronto","latitude":"43.67883","longitude":"-79.40874","type":"Sights & Landmarks","neighbourhood":"The Annex/ Midtown / Yorkville"},{"name":"Ontario Science Centre","address":"770 Don Mills RdToronto, Ontario M3C 1T3, Canada","country":"Canada","region":"Ontario","city":"Toronto","latitude":"43.715115","longitude":"-79.33961","type":"Museums","neighbourhood":"Flemingdon Park"},{"name":"Fort York National Historic Site","address":"250 Fort York BlvdToronto, Ontario M5V 3K9, Canada","country":"Canada","region":"Ontario","city":"Toronto","latitude":"43.637314","longitude":"-79.40659","type":"Museums","neighbourhood":"CN Tower / King and Spadina"},{"name":"Brookfield Place","address":"181 Bay StToronto, Ontario M5J 2T3, Canada","country":"Canada","region":"Ontario","city":"Toronto","latitude":"43.64721","longitude":"-79.37933","type":"Sights & Landmarks","neighbourhood":"Harbourfront East / Union Station"},{"name":"Gardiner Museum","address":"111 Queen's PkToronto, Ontario M5S 2C7, Canada","country":"Canada","region":"Ontario","city":"Toronto","latitude":"43.668083","longitude":"-79.39314","type":"Museums","neighbourhood":"University of Toronto / Harbord"},{"name":"Mackenzie House","address":"82 Bond StToronto, Ontario M5B 1X2, Canada","country":"Canada","region":"Ontario","city":"Toronto","latitude":"43.65568","longitude":"-79.37841","type":"Sights & Landmarks","neighbourhood":"Ryerson"},{"name":"Toronto Railway Museum","address":"255 Bremner Blvd Unit 15Toronto, Ontario M5V 3M9, Canada","country":"Canada","region":"Ontario","city":"Toronto","latitude":"43.640724","longitude":"-79.38595","type":"Museums","neighbourhood":"CN Tower / King and Spadina"},{"name":"Colborne Lodge","address":"11 Colborne Lodge Dr.Toronto, Ontario M5H 2N2, Canada","country":"Canada","region":"Ontario","city":"Toronto","latitude":"43.640385","longitude":"-79.45998","type":"Sights & Landmarks","neighbourhood":"Richmond / Adelaide / King"},{"name":"Textile Museum of Canada","address":"55 Centre AveToronto, Ontario M5G 2H5, Canada","country":"Canada","region":"Ontario","city":"Toronto","latitude":"43.65458","longitude":"-79.38661","type":"Museums","neighbourhood":"Central Bay Street"},{"name":"Campbell House Museum","address":"160 Queen St WToronto, Ontario M5H 3H3, Canada","country":"Canada","region":"Ontario","city":"Toronto","latitude":"43.65086","longitude":"-79.38681","type":"Museums","neighbourhood":"Richmond / Adelaide / King"},{"name":"Toronto's First Post Office","address":"260 Adelaide St EToronto, Ontario M5A 1N1, Canada","country":"Canada","region":"Ontario","city":"Toronto","latitude":"43.65191","longitude":"-79.3705","type":"Sights & Landmarks","neighbourhood":"Regent Park / Port of Toronto"},{"name":"Purina Pawsway","address":"245 Queens Quay WToronto, Ontario M5J 2K9, Canada","country":"Canada","region":"Ontario","city":"Toronto","latitude":"43.63889","longitude":"-79.38523","type":"Museums","neighbourhood":"Harbourfront East / Union Station"},{"name":"The Power Plant","address":"231 Queens Quay WToronto, Ontario M5J 2G8, Canada","country":"Canada","region":"Ontario","city":"Toronto","latitude":"43.63867","longitude":"-79.38212","type":"Museums","neighbourhood":"Harbourfront East / Union Station"},{"name":"Toronto Police Museum","address":"40 College StToronto, Ontario M5G 2J3, Canada","country":"Canada","region":"Ontario","city":"Toronto","latitude":"43.660664","longitude":"-79.38447","type":"Museums","neighbourhood":"Central Bay Street"},{"name":"Toronto Dominion Gallery of Inuit Art","address":"79 Wellington St WToronto, Ontario M5K 1A1, Canada","country":"Canada","region":"Ontario","city":"Toronto","latitude":"43.64699","longitude":"-79.38127","type":"Museums","neighbourhood":"Toronto Dominion Centre"},{"name":"The Market Gallery","address":"95 Front St EToronto, Ontario M5E 1C2, Canada","country":"Canada","region":"Ontario","city":"Toronto","latitude":"43.64918","longitude":"-79.37145","type":"Museums","neighbourhood":"Berczy Park"},{"name":"Ryerson Image Centre","address":"33 Gould StToronto, Ontario M5B 1E9, Canada","country":"Canada","region":"Ontario","city":"Toronto","latitude":"43.65767","longitude":"-79.37927","type":"Museums","neighbourhood":"Ryerson"},{"name":"MZTV Museum of Television","address":"64 Jefferson AveToronto, Ontario M6K 1Y4, Canada","country":"Canada","region":"Ontario","city":"Toronto","latitude":"43.63764","longitude":"-79.42165","type":"Museums","neighbourhood":"Parkdale Village"},{"name":"The Pier","address":"245 Queens Quay WToronto, Ontario M5J 2K9, Canada","country":"Canada","region":"Ontario","city":"Toronto","latitude":"43.63888","longitude":"-79.38519","type":"Museums","neighbourhood":"Harbourfront East / Union Station"},{"name":"Montgomery's Inn","address":"4709 Dundas St WToronto, Ontario M9A 1A8, Canada","country":"Canada","region":"Ontario","city":"Toronto","latitude":"43.65168","longitude":"-79.52562","type":"Museums","neighbourhood":"Islington Avenue"},{"name":"Bay of Spirits Gallery","address":"156 Front St WToronto, Ontario M5J 2L6, Canada","country":"Canada","region":"Ontario","city":"Toronto","latitude":"43.64515","longitude":"-79.38423","type":"Museums","neighbourhood":"Harbourfront East / Union Station"},{"name":"Canadian Air & Space Museum","address":"1115 Lodestar RdToronto, Ontario M3J 0G9, Canada","country":"Canada","region":"Ontario","city":"Toronto","latitude":"43.75922","longitude":"-79.46628","type":"Museums","neighbourhood":"Northwood Park / York University"},{"name":"Gibson House Museum","address":"5172 Yonge StToronto, Ontario M2N 5P6, Canada","country":"Canada","region":"Ontario","city":"Toronto","latitude":"43.76965","longitude":"-79.41478","type":"Sights & Landmarks","neighbourhood":"Willowdale South"},{"name":"Toronto Islands","address":"9 Queens Quay West, Jack Layton Ferry TerminalToronto, Ontario M5J 2H3, Canada","country":"Canada","region":"Ontario","city":"Toronto","latitude":"43.62189","longitude":"-79.37876","type":"Nature & Parks","neighbourhood":"Harbourfront East / Union Station"},{"name":"Canvas Gallery","address":"950 Dupont StToronto, Ontario M6H 1Z2, Canada","country":"Canada","region":"Ontario","city":"Toronto","latitude":"43.67011","longitude":"-79.43197","type":"Museums","neighbourhood":"Dufferin / Dovercourt Village"},{"name":"High Park","address":"1873 Bloor St WToronto, Ontario M6R 2Z3, Canada","country":"Canada","region":"Ontario","city":"Toronto","latitude":"43.65357","longitude":"-79.46405","type":"Nature & Parks","neighbourhood":"Parkdale / Roncesvalles Village"},{"name":"Ripley's Aquarium Of Canada","address":"288 Bremner BoulevardToronto, Ontario M5V 3L9, Canada","country":"Canada","region":"Ontario","city":"Toronto","latitude":"43.6425","longitude":"-79.386","type":"Zoos & Aquariums","neighbourhood":"CN Tower / King and Spadina"},{"name":"Toronto Zoo","address":"2000 Meadowvale RdToronto, Ontario M1B 5K7, Canada","country":"Canada","region":"Ontario","city":"Toronto","latitude":"43.82387","longitude":"-79.1783","type":"Zoos & Aquariums","neighbourhood":"Malvern / Rouge River"},{"name":"Allan Gardens Conservatory","address":"19 Horticultural AveToronto, Ontario M5A 2P2, Canada","country":"Canada","region":"Ontario","city":"Toronto","latitude":"43.66095","longitude":"-79.37471","type":"Nature & Parks","neighbourhood":"Regent Park / Port of Toronto"},{"name":"Humber Bay Park","address":"100 Humber Bay Park Rd WToronto, Ontario M8V 3X7, Canada","country":"Canada","region":"Ontario","city":"Toronto","latitude":"43.61901","longitude":"-79.48055","type":"Nature & Parks","neighbourhood":"Mimico South / Humber Bay "},{"name":"Trinity Bellwoods Park","address":"790 Queen St WToronto, Ontario M5H 2N2, Canada","country":"Canada","region":"Ontario","city":"Toronto","latitude":"43.64524","longitude":"-79.41374","type":"Nature & Parks","neighbourhood":"Richmond / Adelaide / King"},{"name":"Woodbine Park","address":"1695 Queen St EToronto, Ontario M4L 1G7, Canada","country":"Canada","region":"Ontario","city":"Toronto","latitude":"43.66695","longitude":"-79.31179","type":"Nature & Parks","neighbourhood":"India Bazaar / The Beaches West"},{"name":"Toronto Botanical Garden","address":"777 Lawrence Ave EToronto, Ontario M3C 1P2, Canada","country":"Canada","region":"Ontario","city":"Toronto","latitude":"43.73434","longitude":"-79.35862","type":"Nature & Parks","neighbourhood":"Flemingdon Park"},{"name":"Canada's Sugar Beach","address":"25 Dockside DrToronto, Ontario M5A 0B5, Canada","country":"Canada","region":"Ontario","city":"Toronto","latitude":"43.64365","longitude":"-79.36633","type":"Nature & Parks","neighbourhood":"Regent Park / Port of Toronto"},{"name":"Ashbridge's Bay Park","address":"Lakeshore Blvd. E.Toronto, Ontario M4M 1B4, Canada","country":"Canada","region":"Ontario","city":"Toronto","latitude":"43.65852","longitude":"-79.32965","type":"Nature & Parks","neighbourhood":"Studio District"},{"name":"Rouge Park Conservation Area","address":"Sheppard and MeadowvaleToronto, Ontario L4G 0L8, Canada","country":"Canada","region":"Ontario","city":"Toronto","latitude":"43.62908","longitude":"-79.73888","type":"Nature & Parks","neighbourhood":"Aurora"},{"name":"Berczy Park","address":"35 Wellington Street EastToronto, Ontario M5E 1C6, Canada","country":"Canada","region":"Ontario","city":"Toronto","latitude":"43.64811","longitude":"-79.37517","type":"Nature & Parks","neighbourhood":"Berczy Park"},{"name":"Colonel Sam Smith Park","address":"3145 Lake Shore Boulevard West, EtobicokeToronto, Ontario M8V 1L4, Canada","country":"Canada","region":"Ontario","city":"Toronto","latitude":"43.5981","longitude":"-79.51524","type":"Nature & Parks","neighbourhood":"Mimico South / Humber Bay "},{"name":"Rosetta McClain Gardens","address":"5 Glen Everest RdToronto, Ontario M1N 1J2, Canada","country":"Canada","region":"Ontario","city":"Toronto","latitude":"43.69685","longitude":"-79.25625","type":"Nature & Parks","neighbourhood":"Birch Cliff / Cliffside West"},{"name":"Guild Park","address":"201 Guildwood ParkwayToronto, Ontario M1E 1P5, Canada","country":"Canada","region":"Ontario","city":"Toronto","latitude":"43.74916","longitude":"-79.19069","type":"Nature & Parks","neighbourhood":"Guildwood / Morningside / Ellesmere"},{"name":"Kew Gardens","address":"2075 Queen St EToronto, Ontario M4L 1J1, Canada","country":"Canada","region":"Ontario","city":"Toronto","latitude":"43.66999","longitude":"-79.29925","type":"Nature & Parks","neighbourhood":"India Bazaar / The Beaches West"},{"name":"Ripley's Aquarium Of Canada","address":"288 Bremner BoulevardToronto, Ontario M5V 3L9, Canada","country":"Canada","region":"Ontario","city":"Toronto","latitude":"43.6425","longitude":"-79.386","type":"Zoos & Aquariums","neighbourhood":"CN Tower / King and Spadina"},{"name":"High Park Zoo","address":"25 Penn DrToronto, Ontario M9L 2A7, Canada","country":"Canada","region":"Ontario","city":"Toronto","latitude":"43.75101","longitude":"-79.55508","type":"Zoos & Aquariums","neighbourhood":"Humber Summit"},{"name":"Toronto Zoo","address":"2000 Meadowvale RdToronto, Ontario M1B 5K7, Canada","country":"Canada","region":"Ontario","city":"Toronto","latitude":"43.82387","longitude":"-79.1783","type":"Zoos & Aquariums","neighbourhood":"Malvern / Rouge River"},{"name":"Far Enough Farm","address":"Centre IslandToronto, Ontario M8Z 2T7, Canada","country":"Canada","region":"Ontario","city":"Toronto","latitude":"43.62043","longitude":"-79.37391","type":"Zoos & Aquariums","neighbourhood":"The Queensway West"},{"name":"Notre-Dame Basilica","address":"110 Notre-Dame Street WestMontreal, Quebec H2Y 1T1, Canada","country":"Canada","region":"Quebec","city":"Montreal","latitude":"45.504707","longitude":"-73.55675","type":"Sights & Landmarks","neighbourhood":"Old Montreal"},{"name":"Old Montreal","address":"Montreal, Quebec H2Y 3Y8, Canada","country":"Canada","region":"Quebec","city":"Montreal","latitude":"45.50401","longitude":"-73.55596","type":"Sights & Landmarks","neighbourhood":"Old Montreal"},{"name":"Saint Joseph's Oratory of Mount Royal","address":"3800 Queen Mary RoadMontreal, Quebec H3V 1H6, Canada","country":"Canada","region":"Quebec","city":"Montreal","latitude":"45.493374","longitude":"-73.62022","type":"Sights & Landmarks","neighbourhood":"CÃ´te-des-Neiges East"},{"name":"St. Patrick's Basilica","address":"454 Rene-Levesque Blvd WMontreal, Quebec H2Z 1A7, Canada","country":"Canada","region":"Quebec","city":"Montreal","latitude":"45.50391","longitude":"-73.56568","type":"Sights & Landmarks","neighbourhood":"Downtown Montreal Northeast"},{"name":"Notre-Dame-de-Bonsecours Chapel","address":"400 St-Paul St. E.Montreal, Quebec H2Y 1H4, Canada","country":"Canada","region":"Quebec","city":"Montreal","latitude":"45.50979","longitude":"-73.55124","type":"Sights & Landmarks","neighbourhood":"Old Montreal"},{"name":"Cathedral of Marie-Reine-du-Monde","address":"1085 de la CathedraleMontreal, Quebec H3B 2V3, Canada","country":"Canada","region":"Quebec","city":"Montreal","latitude":"45.50014","longitude":"-73.57286","type":"Sights & Landmarks","neighbourhood":"Downtown Montreal East"},{"name":"Quartier des spectacles","address":"1435 rue Saint-AlexandreMontreal, Quebec H3A 2G4, Canada","country":"Canada","region":"Quebec","city":"Montreal","latitude":"45.50591","longitude":"-73.56811","type":"Sights & Landmarks","neighbourhood":"Downtown Montreal North"},{"name":"Plateau Mont-Royal","address":"170 Prince ArthurMontreal, Quebec H2X 1B7, Canada","country":"Canada","region":"Quebec","city":"Montreal","latitude":"45.51545","longitude":"-73.57095","type":"Sights & Landmarks","neighbourhood":"Plateau Mont-Royal Southeast"},{"name":"Lieu Historique National du Canal-de-Lachine","address":"105 Rue McGillMontreal, Quebec H2Y 2E7, Canada","country":"Canada","region":"Quebec","city":"Montreal","latitude":"45.4998","longitude":"-73.55507","type":"Sights & Landmarks","neighbourhood":"Old Montreal"},{"name":"McGill University","address":"805 Sherbrooke St. W.Montreal, Quebec H3A 0B9, Canada","country":"Canada","region":"Quebec","city":"Montreal","latitude":"45.504364","longitude":"-73.574295","type":"Sights & Landmarks","neighbourhood":"Downtown Montreal North"},{"name":"Circuit Gilles Villeneuve","address":"Montreal, Quebec H3C 6A1, Canada","country":"Canada","region":"Quebec","city":"Montreal","latitude":"45.5025","longitude":"-73.52333","type":"Sights & Landmarks","neighbourhood":"Griffintown"},{"name":"Formula 1 Grand Prix du Canada","address":"2170 Avenue Pierre-Dupuy #100Montreal, Quebec H3C 3R4, Canada","country":"Canada","region":"Quebec","city":"Montreal","latitude":"45.491802","longitude":"-73.54235","type":"Sights & Landmarks","neighbourhood":"Griffintown"},{"name":"Old Port of Montreal","address":"De la Commune WestMontreal, Quebec H2Y 2E2, Canada","country":"Canada","region":"Quebec","city":"Montreal","latitude":"45.49995","longitude":"-73.55346","type":"Sights & Landmarks","neighbourhood":"Old Montreal"},{"name":"Crescent Street","address":"Sherbrooke St south to de la GauchetiereMontreal, Quebec H3G 2C1, Canada","country":"Canada","region":"Quebec","city":"Montreal","latitude":"45.49851","longitude":"-73.57985","type":"Sights & Landmarks","neighbourhood":"Downtown Montreal Southeast"},{"name":"Rue St. Denis","address":"405 Rue Sherbrooke EMontreal, Quebec H2L 1J9, Canada","country":"Canada","region":"Quebec","city":"Montreal","latitude":"45.51727","longitude":"-73.56762","type":"Sights & Landmarks","neighbourhood":"Centre-Sud South"} ,{"name":"Au Sommet Place Ville Marie","address":"3 Place Ville MarieMontreal, Quebec H3B 2B6, Canada","country":"Canada","region":"Quebec","city":"Montreal","latitude":"45.50204","longitude":"-73.56933","type":"Sights & Landmarks","neighbourhood":"Downtown Montreal East"},{"name":"Saint Laurent Boulevard","address":"St-Lawrence River north to city limitsMontreal, Quebec H2W 1X9, Canada","country":"Canada","region":"Quebec","city":"Montreal","latitude":"45.43838","longitude":"-73.75193","type":"Sights & Landmarks","neighbourhood":"Plateau Mont-Royal South Central"},{"name":"Rue Notre-Dame","address":"Notre-Dame StreetMontreal, Quebec H3C 0K6, Canada","country":"Canada","region":"Quebec","city":"Montreal","latitude":"45.49698","longitude":"-73.56213","type":"Sights & Landmarks","neighbourhood":"Griffintown"},{"name":"Saputo Stadium","address":"4750, Rue Sherbrooke EastMontreal, Quebec H1V 3S8, Canada","country":"Canada","region":"Quebec","city":"Montreal","latitude":"45.56315","longitude":"-73.5527","type":"Sights & Landmarks","neighbourhood":"Maisonneuve"},{"name":"Mont (Mount) Royal Cemetery","address":"1297 Chemin de la ForetMontreal, Quebec H2V 2P9, Canada","country":"Canada","region":"Quebec","city":"Montreal","latitude":"45.51049","longitude":"-73.60038","type":"Sights & Landmarks","neighbourhood":"Outremont"},{"name":"AURA Basilique","address":"110 Notre-Dame Street WestMontreal, Quebec H2Y 1T1, Canada","country":"Canada","region":"Quebec","city":"Montreal","latitude":"45.50437","longitude":"-73.55684","type":"Sights & Landmarks","neighbourhood":"Old Montreal"},{"name":"Aqua Dome","address":"1411 LaPierre St.Montreal, Quebec H4J 2N6, Canada","country":"Canada","region":"Quebec","city":"Montreal","latitude":"45.43653","longitude":"-73.60825","type":"Water & Amusement Parks","neighbourhood":"Cartierville Central"},{"name":"La Ronde Amusement Park","address":"22, Chemin MacdonaldMontreal, Quebec H3C 6A3, Canada","country":"Canada","region":"Quebec","city":"Montreal","latitude":"45.52239","longitude":"-73.53451","type":"Water & Amusement Parks","neighbourhood":"Griffintown"},{"name":"Aquazilla","address":"1, Circuit Gilles-VilleneuveMontreal, Quebec H3C 4W7, Canada","country":"Canada","region":"Quebec","city":"Montreal","latitude":"45.498783","longitude":"-73.52352","type":"Water & Amusement Parks","neighbourhood":"Griffintown"},{"name":"Mount Royal Park","address":"1260 Remembrance RoadMontreal, Quebec H3H 1A2, Canada","country":"Canada","region":"Quebec","city":"Montreal","latitude":"45.502697","longitude":"-73.594055","type":"Nature & Parks","neighbourhood":"Downtown Montreal South & West"},{"name":"Place des Arts","address":"Ste-Catherine StMontreal, Quebec H2X 1Y9, Canada","country":"Canada","region":"Quebec","city":"Montreal","latitude":"45.48184","longitude":"-73.59245","type":"Nature & Parks","neighbourhood":"Plateau Mont-Royal Southeast"},{"name":"Japanese Garden","address":"4101 Rue Sherbrooke EstMontreal, Quebec H1X 2B2, Canada","country":"Canada","region":"Quebec","city":"Montreal","latitude":"45.55677","longitude":"-73.55637","type":"Nature & Parks","neighbourhood":"Rosemont Central"},{"name":"Montreal Botanical Gardens","address":"4101 Sherbrooke St. EMontreal, Quebec H1X 2B2, Canada","country":"Canada","region":"Quebec","city":"Montreal","latitude":"45.55677","longitude":"-73.55637","type":"Nature & Parks","neighbourhood":"Rosemont Central"},{"name":"Lieu Historique National du Canal-de-Lachine","address":"105 Rue McGillMontreal, Quebec H2Y 2E7, Canada","country":"Canada","region":"Quebec","city":"Montreal","latitude":"45.4998","longitude":"-73.55507","type":"Sights & Landmarks","neighbourhood":"Old Montreal"},{"name":"Old Port of Montreal","address":"De la Commune WestMontreal, Quebec H2Y 2E2, Canada","country":"Canada","region":"Quebec","city":"Montreal","latitude":"45.49995","longitude":"-73.55346","type":"Sights & Landmarks","neighbourhood":"Old Montreal"},{"name":"Parc Jean-Drapeau","address":"1 circuit Gilles-VilleneuveMontreal, Quebec H3C 1A9, Canada","country":"Canada","region":"Quebec","city":"Montreal","latitude":"45.50403","longitude":"-73.52908","type":"Nature & Parks","neighbourhood":"Griffintown"},{"name":"Zoo Ecomuseum","address":"21125, chemin Ste-MarieMontreal, Quebec H9X 3Y7, Canada","country":"Canada","region":"Quebec","city":"Montreal","latitude":"45.42372","longitude":"-73.93309","type":"Museums","neighbourhood":"Sainte-Anne-De-Bellevue"},{"name":"Parc Maisonneuve","address":"4601 Sherbrooke EastMontreal, Quebec H1X 2B1, Canada","country":"Canada","region":"Quebec","city":"Montreal","latitude":"45.56301","longitude":"-73.56159","type":"Nature & Parks","neighbourhood":"Rosemont Central"},{"name":"Cap-Saint-Jacques Nature Park","address":"20099, boul. Gouin OMontreal, Quebec H9K 1C6, Canada","country":"Canada","region":"Quebec","city":"Montreal","latitude":"45.46071","longitude":"-73.92117","type":"Nature & Parks","neighbourhood":"Senneville"},{"name":"Parc-Nature-du-Bois-de-l'ile-Bizard","address":"2115, chemin Bord-Du-LacMontreal, Quebec H9C 1P3, Canada","country":"Canada","region":"Quebec","city":"Montreal","latitude":"45.51345","longitude":"-73.89692","type":"Nature & Parks","neighbourhood":"L'Ãle Bizard Northeast"},{"name":"Ile-de-la-Visitation Nature Park","address":"2425 Boulevard Gouin EastMontreal, Quebec H2B 1X7, Canada","country":"Canada","region":"Quebec","city":"Montreal","latitude":"45.57839","longitude":"-73.65616","type":"Nature & Parks","neighbourhood":"Ahuntsic North"},{"name":"Dorchester Square","address":"1555 Peel StreetMontreal, Quebec H3A 3L8, Canada","country":"Canada","region":"Quebec","city":"Montreal","latitude":"45.50089","longitude":"-73.57364","type":"Sights & Landmarks","neighbourhood":"Downtown Montreal North"},{"name":"Jean-Dore Beach","address":"151 Circuit Gilles VilleneuveMontreal, Quebec H3C 1A9, Canada","country":"Canada","region":"Quebec","city":"Montreal","latitude":"45.50265","longitude":"-73.52314","type":"Nature & Parks","neighbourhood":"Griffintown"},{"name":"Angrignon Park","address":"3400 des Trinitaires BlvdMontreal, Quebec H4E 4J3, Canada","country":"Canada","region":"Quebec","city":"Montreal","latitude":"45.44454","longitude":"-73.60173","type":"Nature & Parks","neighbourhood":"Ville Ãmard"},{"name":"Parc de la Cite-du-Havre","address":"Pierre-Dupuy AveMontreal, Quebec H3C 3R6, Canada","country":"Canada","region":"Quebec","city":"Montreal","latitude":"45.505","longitude":"-73.54345","type":"Nature & Parks","neighbourhood":"Griffintown"},{"name":"Champ-de-Mars","address":"Behind City HallMontreal, Quebec H2Y 1C6, Canada","country":"Canada","region":"Quebec","city":"Montreal","latitude":"45.50948","longitude":"-73.55423","type":"Nature & Parks","neighbourhood":"Old Montreal"},{"name":"Parc de la Promenade Bellerive","address":"Notre-Dame south to St-Lawrence RiverMontreal, Quebec H1L 6S2, Canada","country":"Canada","region":"Quebec","city":"Montreal","latitude":"45.59787","longitude":"-73.52659","type":"Nature & Parks","neighbourhood":"Mercier North"},{"name":"The Raptors","address":"1877 Herd RdDuncan, British Columbia V9L 5W4, Canada","country":"Canada","region":"British Columbia","city":"Duncan","latitude":"48.82105","longitude":"-123.65995","type":"Nature & Parks","neighbourhood":"Duncan"},{"name":"Parksville Community Park and Skate Park","address":"Corfield St N & Island Hwy EParksville, British Columbia V9P 2H3, Canada","country":"Canada","region":"British Columbia","city":"Parksville","latitude":"49.320545","longitude":"-124.306885","type":"Nature & Parks","neighbourhood":"Parksville"},{"name":"Rathtrevor Beach Provincial Park","address":"Rathtrevor RdParksville, British Columbia V9P 1T2, Canada","country":"Canada","region":"British Columbia","city":"Parksville","latitude":"49.32105","longitude":"-124.26391","type":"Nature & Parks","neighbourhood":"Parksville"},{"name":"Englishman River Falls Provincial Park","address":"2245 Errington RdErrington, British Columbia V0R 1V0, Canada","country":"Canada","region":"British Columbia","city":"Errington","latitude":"49.26275","longitude":"-124.35816","type":"Nature & Parks","neighbourhood":"Chemainus"},{"name":"Horne Lake Caves Provincial Park","address":"3900 Horne Lake Caves RdQualicum Beach, British Columbia V9K 2L7, Canada","country":"Canada","region":"British Columbia","city":"Qualicum Beach","latitude":"49.3445","longitude":"-124.7505","type":"Nature & Parks","neighbourhood":"Qualicum Beach"},{"name":"Newcastle Island","address":"Nanaimo, British Columbia V9R 6X6, Canada","country":"Canada","region":"British Columbia","city":"Nanaimo","latitude":"49.180668","longitude":"-123.92733","type":"Nature & Parks","neighbourhood":"Nanaimo South"},{"name":"Barbie Expo","address":"1455 Rue PeelMontreal, Quebec H3A 1T5, Canada","country":"Canada","region":"Quebec","city":"Montreal","latitude":"45.501247","longitude":"-73.57389","type":"Museums","neighbourhood":"Downtown Montreal North"},{"name":"Museum of Jewish Montreal","address":"4040 St. Laurent BoulevardMontreal, Quebec H2W 1Y8, Canada","country":"Canada","region":"Quebec","city":"Montreal","latitude":"45.51679","longitude":"-73.57988","type":"Museums","neighbourhood":"Plateau Mont-Royal South Central"},{"name":"Montreal Holocaust Memorial Centre","address":"5151 Cote-Ste-Catherine RoadMontreal, Quebec H3W 1M6, Canada","country":"Canada","region":"Quebec","city":"Montreal","latitude":"45.48901","longitude":"-73.63636","type":"Museums","neighbourhood":"CÃ´te-des-Neiges Southwest"},{"name":"Montreal Museum of Fine Arts (Musee des Beaux-Arts)","address":"1380 Sherbrooke WMontreal, Quebec H3G 1J5, Canada","country":"Canada","region":"Quebec","city":"Montreal","latitude":"45.498684","longitude":"-73.57932","type":"Museums","neighbourhood":"Downtown Montreal Southeast"},{"name":"Pointe-a-Calliere Museum","address":"350 Place RoyaleMontreal, Quebec H2Y 3Y5, Canada","country":"Canada","region":"Quebec","city":"Montreal","latitude":"45.502644","longitude":"-73.55417","type":"Museums","neighbourhood":"Old Montreal"},{"name":"Musee Redpath","address":"859 rue Sherbrooke OuestMontreal, Quebec H3A 0C4, Canada","country":"Canada","region":"Quebec","city":"Montreal","latitude":"45.50434","longitude":"-73.5774","type":"Museums","neighbourhood":"Downtown Montreal North"},{"name":"Centre d'Histoire de Montreal","address":"335 place d'YouvilleMontreal, Quebec H2Y 3T1, Canada","country":"Canada","region":"Quebec","city":"Montreal","latitude":"45.500946","longitude":"-73.555595","type":"Museums","neighbourhood":"Old Montreal"},{"name":"Biodome de Montreal","address":"4777 Pierre de-Coubertin AveMontreal, Quebec H1V 1B3, Canada","country":"Canada","region":"Quebec","city":"Montreal","latitude":"45.559696","longitude":"-73.54978","type":"Museums","neighbourhood":"Maisonneuve"},{"name":"Grevin Montreal","address":"705 Sainte Catherine Street WestMontreal, Quebec H3B 4G5, Canada","country":"Canada","region":"Quebec","city":"Montreal","latitude":"45.50275","longitude":"-73.57086","type":"Museums","neighbourhood":"Downtown Montreal East"},{"name":"Chateau Ramezay Historic Site and Museum of Montreal","address":"280 Notre-Dame St. E.Montreal, Quebec H2Y 1C5, Canada","country":"Canada","region":"Quebec","city":"Montreal","latitude":"45.50878","longitude":"-73.553474","type":"Museums","neighbourhood":"Old Montreal"},{"name":"Montreal Science Centre","address":"2, de la Commune Street WestMontreal, Quebec H2Y 4B2, Canada","country":"Canada","region":"Quebec","city":"Montreal","latitude":"45.504776","longitude":"-73.55016","type":"Museums","neighbourhood":"Old Montreal"},{"name":"Montreal Insectarium","address":"4581 rue Sherbrooke EstMontreal, Quebec H1X 2B2, Canada","country":"Canada","region":"Quebec","city":"Montreal","latitude":"45.56106","longitude":"-73.55765","type":"Museums","neighbourhood":"Rosemont Central"},{"name":"Biosphere","address":"160 Tour-de-l'IleMontreal, Quebec H3C 4G8, Canada","country":"Canada","region":"Quebec","city":"Montreal","latitude":"45.51375","longitude":"-73.53163","type":"Museums","neighbourhood":"Griffintown"},{"name":"McCord Museum","address":"690 Rue Sherbrooke OuestMontreal, Quebec H3A 1E9, Canada","country":"Canada","region":"Quebec","city":"Montreal","latitude":"45.50443","longitude":"-73.57367","type":"Museums","neighbourhood":"Downtown Montreal North"},{"name":"Zoo Ecomuseum","address":"21125, chemin Ste-MarieMontreal, Quebec H9X 3Y7, Canada","country":"Canada","region":"Quebec","city":"Montreal","latitude":"45.42372","longitude":"-73.93309","type":"Museums","neighbourhood":"Sainte-Anne-De-Bellevue"},{"name":"Musee d'art contemporain de Montreal","address":"185 rue Ste-Catherine OuestMontreal, Quebec H2X 3X5, Canada","country":"Canada","region":"Quebec","city":"Montreal","latitude":"45.507687","longitude":"-73.56658","type":"Museums","neighbourhood":"Plateau Mont-Royal Southeast"},{"name":"Stewart Museum","address":"20, chemin Tour-de-l'IsleMontreal, Quebec H3C 0K7, Canada","country":"Canada","region":"Quebec","city":"Montreal","latitude":"45.51983","longitude":"-73.53598","type":"Museums","neighbourhood":"Griffintown"},{"name":"Lachine Fur Trade Museum","address":"1255 St-Joseph BlvdMontreal, Quebec H8S 2M2, Canada","country":"Canada","region":"Quebec","city":"Montreal","latitude":"45.43145","longitude":"-73.67556","type":"Sights & Landmarks","neighbourhood":"Lachine East"},{"name":"Maison Saint-Gabriel","address":"2146 Place DublinMontreal, Quebec H3K 2A2, Canada","country":"Canada","region":"Quebec","city":"Montreal","latitude":"45.47597","longitude":"-73.55595","type":"Sights & Landmarks","neighbourhood":"Pointe-Saint-Charles"},{"name":"Bank of Montreal (Banque de Montreal)","address":"119 St-Jacques St. WestMontreal, Quebec H2Y 1L6, Canada","country":"Canada","region":"Quebec","city":"Montreal","latitude":"45.50484","longitude":"-73.5581","type":"Sights & Landmarks","neighbourhood":"Old Montreal"},{"name":"Chateau Dufresne (Dufresne House)","address":"2929 Rue Jeanne-d'ArcMontreal, Quebec H1W 3W2, Canada","country":"Canada","region":"Quebec","city":"Montreal","latitude":"45.5538","longitude":"-73.55399","type":"Sights & Landmarks","neighbourhood":"Hochelaga"},{"name":"Marguerite Bourgeoys Museum","address":"400, St.Paul Street EastMontreal, Quebec H2Y 1H4, Canada","country":"Canada","region":"Quebec","city":"Montreal","latitude":"45.509693","longitude":"-73.550934","type":"Museums","neighbourhood":"Old Montreal"},{"name":"Chateau de Ramezay","address":"280 Notre-Dame Street East, Old MontrealMontreal, Quebec H2Y 1C5, Canada","country":"Canada","region":"Quebec","city":"Montreal","latitude":"45.502445","longitude":"-73.55827","type":"Museums","neighbourhood":"Old Montreal"},{"name":"DHC/ART","address":"451 & 465, Saint-Jean StreetMontreal, Quebec H2Y 2R5, Canada","country":"Canada","region":"Quebec","city":"Montreal","latitude":"45.50247","longitude":"-73.55697","type":"Museums","neighbourhood":"Old Montreal"},{"name":"Maison Historique George-Etienne Cartier","address":"458 Notre-Dame St EMontreal, Quebec H2Y 1C8, Canada","country":"Canada","region":"Quebec","city":"Montreal","latitude":"45.501194","longitude":"-73.5592","type":"Sights & Landmarks","neighbourhood":"Old Montreal"},{"name":"Phi Centre","address":"407 Saint-Pierre StreetMontreal, Quebec H2Y 2M3, Canada","country":"Canada","region":"Quebec","city":"Montreal","latitude":"45.50145","longitude":"-73.55639","type":"Sights & Landmarks","neighbourhood":"Old Montreal"},{"name":"Musee des Hospitalieres de I'Hotel-Dieu de Montreal","address":"201 av. des Pins OuestMontreal, Quebec H2W 1R5, Canada","country":"Canada","region":"Quebec","city":"Montreal","latitude":"45.51311","longitude":"-73.57752","type":"Museums","neighbourhood":"Plateau Mont-Royal South Central"},{"name":"Cite d'Histoire et d'Archeologie de Montreal","address":"350, Place RoyaleMontreal, Quebec H2Y 3Y5, Canada","country":"Canada","region":"Quebec","city":"Montreal","latitude":"45.50271","longitude":"-73.55411","type":"Museums","neighbourhood":"Old Montreal"},{"name":"Musee Rene Gagnon","address":"203 Notre Dame ouestMontreal, Quebec H2Y 1T4, Canada","country":"Canada","region":"Quebec","city":"Montreal","latitude":"45.503853","longitude":"-73.557556","type":"Museums","neighbourhood":"Old Montreal"},{"name":"Musee de Lachine","address":"1 Chemin du MuseeMontreal, Quebec H8S 4L9, Canada","country":"Canada","region":"Quebec","city":"Montreal","latitude":"45.430084","longitude":"-73.6669","type":"Museums","neighbourhood":"Lachine East"},{"name":"The Museum at Campbell River","address":"470 Island HwyCampbell River, British Columbia V9W 2B7, Canada","country":"Canada","region":"British Columbia","city":"Campbell River","latitude":"50.01546","longitude":"-125.23554","type":"Museums","neighbourhood":"Campbell River Central"},{"name":"The Whale Interpretive Centre","address":"Telegraph CoveTelegraph Cove, British Columbia V0N 3J0, Canada","country":"Canada","region":"British Columbia","city":"Telegraph Cove","latitude":"50.546745","longitude":"-126.83441","type":"Museums","neighbourhood":"Whistler"},{"name":"B.C. Forest Discovery Centre","address":"2892 Drinkwater RdDuncan, British Columbia V9L 6C2, Canada","country":"Canada","region":"British Columbia","city":"Duncan","latitude":"48.80303","longitude":"-123.715576","type":"Museums","neighbourhood":"Duncan"},{"name":"Nanaimo Museum","address":"100 Museum WayNanaimo, British Columbia V9R 2X1, Canada","country":"Canada","region":"British Columbia","city":"Nanaimo","latitude":"49.16546","longitude":"-123.93623","type":"Museums","neighbourhood":"Nanaimo South"},{"name":"Vancouver Island Military Museum","address":"100 Cameron RdNanaimo, British Columbia V9R 0C8, Canada","country":"Canada","region":"British Columbia","city":"Nanaimo","latitude":"49.1649","longitude":"-123.93528","type":"Museums","neighbourhood":"Nanaimo South"},{"name":"Parksville Museum","address":"1245 Island Hwy EParksville, British Columbia V9P 2E5, Canada","country":"Canada","region":"British Columbia","city":"Parksville","latitude":"49.30573","longitude":"-124.26165","type":"Museums","neighbourhood":"Parksville"},{"name":"Cowichan Bay Maritime Centre","address":"1761 Cowichan Bay RdDuncan, British Columbia V0R 1N0, Canada","country":"Canada","region":"British Columbia","city":"Duncan","latitude":"48.740593","longitude":"-123.6216","type":"Museums","neighbourhood":"Chemainus"},{"name":"Shawnigan Lake Museum","address":"1775 Shawnigan - Mill Bay RoadShawnigan Lake, British Columbia V0R 2W0, Canada","country":"Canada","region":"British Columbia","city":"Shawnigan Lake","latitude":"48.653793","longitude":"-123.62338","type":"Museums","neighbourhood":"Chemainus"},{"name":"Qualicum Beach Museum","address":"587 Beach RdQualicum Beach, British Columbia V9K 1K7, Canada","country":"Canada","region":"British Columbia","city":"Qualicum Beach","latitude":"49.35041","longitude":"-124.44798","type":"Museums","neighbourhood":"Qualicum Beach"},{"name":"Wall Murals","address":"102-9799 Waterwheel CrescentChemainus, British Columbia V0R 1K0, Canada","country":"Canada","region":"British Columbia","city":"Chemainus","latitude":"48.92356","longitude":"-123.71718","type":"Sights & Landmarks","neighbourhood":"Chemainus"},{"name":"Little Qualicum Cheeseworks","address":"403 Lowry's RdParksville, British Columbia V9P 2B5, Canada","country":"Canada","region":"British Columbia","city":"Parksville","latitude":"49.32608","longitude":"-124.36848","type":"Sights & Landmarks","neighbourhood":"Parksville"},{"name":"The Old Schoolhouse Arts Centre","address":"122 Fern Road WestQualicum Beach, British Columbia V9K 1T2, Canada","country":"Canada","region":"British Columbia","city":"Qualicum Beach","latitude":"49.34617","longitude":"-124.44225","type":"Sights & Landmarks","neighbourhood":"Qualicum Beach"},{"name":"Little Qualicum River Fish Hatchery","address":"Claymore RoadQualicum Beach, British Columbia V9K 2T6, Canada","country":"Canada","region":"British Columbia","city":"Qualicum Beach","latitude":"49.35199","longitude":"-124.51562","type":"Zoos & Aquariums","neighbourhood":"Qualicum Beach"},{"name":"Holly Hill Farm","address":"2311 Ida RdCampbell River, British Columbia V9W 4V7, Canada","country":"Canada","region":"British Columbia","city":"Campbell River","latitude":"50.03838","longitude":"-125.27474","type":"Sights & Landmarks","neighbourhood":"Campbell River Central"},{"name":"Paradise Fun Park","address":"375 Island Hwy WParksville, British Columbia V9P 1A1, Canada","country":"Canada","region":"British Columbia","city":"Parksville","latitude":"49.323597","longitude":"-124.32316","type":"Water & Amusement Parks","neighbourhood":"Parksville"},{"name":"Granville Island","address":"1661 Duranleau StreetVancouver, British Columbia V6H 3S3, Canada","country":"Canada","region":"British Columbia","city":"Vancouver","latitude":"49.272114","longitude":"-123.13578","type":"Sights & Landmarks","neighbourhood":"West Fairview / Granville Island"},{"name":"Vancouver Seawall","address":"Stanley ParkVancouver, British Columbia V6G 3E2, Canada","country":"Canada","region":"British Columbia","city":"Vancouver","latitude":"49.3006","longitude":"-123.13083","type":"Nature & Parks","neighbourhood":"North West End / Stanley Park"},{"name":"Queen Elizabeth Park","address":"4600 Cambie StVancouver, British Columbia V5Y 2M4, Canada","country":"Canada","region":"British Columbia","city":"Vancouver","latitude":"49.24337","longitude":"-123.11731","type":"Nature & Parks","neighbourhood":"West Mount Pleasant"},{"name":"VanDusen Botanical Garden","address":"5251 Oak StVancouver, British Columbia V6M 4H1, Canada","country":"Canada","region":"British Columbia","city":"Vancouver","latitude":"49.23903","longitude":"-123.13459","type":"Nature & Parks","neighbourhood":"South Shaughnessy / NW Oakridge"},{"name":"Stanley Park","address":"Vancouver, British Columbia V6G 1Z4, Canada","country":"Canada","region":"British Columbia","city":"Vancouver","latitude":"49.299553","longitude":"-123.133705","type":"Nature & Parks","neighbourhood":"North West End / Stanley Park"},{"name":"Spanish Banks","address":"4707 Marine Dr NWVancouver, British Columbia V6T 1A1, Canada","country":"Canada","region":"British Columbia","city":"Vancouver","latitude":"49.27625","longitude":"-123.21558","type":"Nature & Parks","neighbourhood":"UBC"},{"name":"Pacific Spirit Regional Park","address":"4915 W. 16th Ave.Vancouver, British Columbia V6T 2C9, Canada","country":"Canada","region":"British Columbia","city":"Vancouver","latitude":"49.25941","longitude":"-123.22223","type":"Nature & Parks","neighbourhood":"UBC"},{"name":"Nitobe Memorial Garden","address":"1895 Lower MallVancouver, British Columbia V6T 1Z4, Canada","country":"Canada","region":"British Columbia","city":"Vancouver","latitude":"49.26542","longitude":"-123.25804","type":"Nature & Parks","neighbourhood":"UBC"},{"name":"English Bay","address":"1795 Beach AveVancouver, British Columbia V6G 1Y9, Canada","country":"Canada","region":"British Columbia","city":"Vancouver","latitude":"49.28648","longitude":"-123.14221","type":"Nature & Parks","neighbourhood":"North West End / Stanley Park"},{"name":"Bloedel Conservatory","address":"4600 Cambie StVancouver, British Columbia V5Z 2Z1, Canada","country":"Canada","region":"British Columbia","city":"Vancouver","latitude":"49.24337","longitude":"-123.11731","type":"Sights & Landmarks","neighbourhood":"East Fairview / South Cambie"},{"name":"Jericho Beach","address":"1515 Discovery StVancouver, British Columbia V6R 4K5, Canada","country":"Canada","region":"British Columbia","city":"Vancouver","latitude":"49.273098","longitude":"-123.20285","type":"Nature & Parks","neighbourhood":"West Kitsilano / Jericho"},{"name":"English Bay Beach","address":"1795 Beach AveVancouver, British Columbia V6G 1Y9, Canada","country":"Canada","region":"British Columbia","city":"Vancouver","latitude":"49.28648","longitude":"-123.14221","type":"Nature & Parks","neighbourhood":"North West End / Stanley Park"},{"name":"Vancouver Aquarium","address":"845 Avison Way, Stanley ParkVancouver, British Columbia V6B 3X8, Canada","country":"Canada","region":"British Columbia","city":"Vancouver","latitude":"49.30137","longitude":"-123.12951","type":"Sights & Landmarks","neighbourhood":"Harbour Centre / Gastown /"},{"name":"UBC Botanical Garden","address":"6804 Marine Dr SWVancouver, British Columbia V6T 1Z4, Canada","country":"Canada","region":"British Columbia","city":"Vancouver","latitude":"49.25442","longitude":"-123.25005","type":"Nature & Parks","neighbourhood":"UBC"},{"name":"Third Beach","address":"Vancouver, British Columbia V6G 3E2, Canada","country":"Canada","region":"British Columbia","city":"Vancouver","latitude":"49.302975","longitude":"-123.15594","type":"Nature & Parks","neighbourhood":"North West End / Stanley Park"},{"name":"Sunset Beach","address":"1204 Beach AveVancouver, British Columbia V6E 1V3, Canada","country":"Canada","region":"British Columbia","city":"Vancouver","latitude":"49.27982","longitude":"-123.13903","type":"Nature & Parks","neighbourhood":"South West End"},{"name":"Wreck Beach","address":"6344 University BlvdVancouver, British Columbia V6T 1Z2, Canada","country":"Canada","region":"British Columbia","city":"Vancouver","latitude":"49.264206","longitude":"-123.253716","type":"Nature & Parks","neighbourhood":"UBC"},{"name":"Dr. Sun Yat-Sen Classical Chinese Garden","address":"578 Carrall StVancouver, British Columbia V6B 5K2, Canada","country":"Canada","region":"British Columbia","city":"Vancouver","latitude":"49.27976","longitude":"-123.10328","type":"Nature & Parks","neighbourhood":"Harbour Centre / Gastown /"},{"name":"Harbour Green Park","address":"1199 Cordova St WVancouver, British Columbia V6C 0A1, Canada","country":"Canada","region":"British Columbia","city":"Vancouver","latitude":"49.2895","longitude":"-123.12172","type":"Nature & Parks","neighbourhood":"Waterfront / Coal Harbour"},{"name":"Coal Harbor Marina","address":"1525 Coal Harbour QuayVancouver, British Columbia V6G 3E7, Canada","country":"Canada","region":"British Columbia","city":"Vancouver","latitude":"49.29138","longitude":"-123.12779","type":"Nature & Parks","neighbourhood":"North West End / Stanley Park"},{"name":"Vanier Park","address":"1100 Chestnut StVancouver, British Columbia V6J 3J9, Canada","country":"Canada","region":"British Columbia","city":"Vancouver","latitude":"49.275978","longitude":"-123.14598","type":"Nature & Parks","neighbourhood":"NW Shaughnessy / East Kitsilano"},{"name":"Locarno Beach","address":"4445 Marine Dr NWVancouver, British Columbia V6R 1B7, Canada","country":"Canada","region":"British Columbia","city":"Vancouver","latitude":"49.27482","longitude":"-123.21011","type":"Nature & Parks","neighbourhood":"West Kitsilano / Jericho"},{"name":"David Lam Park","address":"1300 Pacific BlvdVancouver, British Columbia V6Z 0A9, Canada","country":"Canada","region":"British Columbia","city":"Vancouver","latitude":"49.27243","longitude":"-123.12417","type":"Nature & Parks","neighbourhood":"SW Downtown"},{"name":"Morton Park","address":"1800 Morton AvenueVancouver, British Columbia V6G 1Z1, Canada","country":"Canada","region":"British Columbia","city":"Vancouver","latitude":"49.28766","longitude":"-123.14198","type":"Nature & Parks","neighbourhood":"North West End / Stanley Park"},{"name":"UBC Rose Garden","address":"6344 University BlvdVancouver, British Columbia V6T 1Z2, Canada","country":"Canada","region":"British Columbia","city":"Vancouver","latitude":"49.264206","longitude":"-123.253716","type":"Nature & Parks","neighbourhood":"UBC"},{"name":"Devonian Harbour Park","address":"1929 West Georgia StreetVancouver, British Columbia V6G 2W9, Canada","country":"Canada","region":"British Columbia","city":"Vancouver","latitude":"49.29422","longitude":"-123.13576","type":"Nature & Parks","neighbourhood":"North West End / Stanley Park"},{"name":"Vancouver Aquarium","address":"845 Avison Way, Stanley ParkVancouver, British Columbia V6B 3X8, Canada","country":"Canada","region":"British Columbia","city":"Vancouver","latitude":"49.30137","longitude":"-123.12951","type":"Sights & Landmarks","neighbourhood":"Harbour Centre / Gastown /"},{"name":"Kitsilano Pool","address":"2305 Cornwall AveVancouver, British Columbia V6K 1B6, Canada","country":"Canada","region":"British Columbia","city":"Vancouver","latitude":"49.27321","longitude":"-123.15758","type":"Water & Amusement Parks","neighbourhood":"Central Kitsilano"},{"name":"PNE - Pacific National Exhibition","address":"2901 Hastings St EVancouver, British Columbia V5K 5J1, Canada","country":"Canada","region":"British Columbia","city":"Vancouver","latitude":"49.28066","longitude":"-123.04134","type":"Water & Amusement Parks","neighbourhood":"North Hastings-Sunrise"},{"name":"Playland","address":"2901 Hastings St EVancouver, British Columbia V5K 5J1, Canada","country":"Canada","region":"British Columbia","city":"Vancouver","latitude":"49.283047","longitude":"-123.03741","type":"Water & Amusement Parks","neighbourhood":"North Hastings-Sunrise"},{"name":"Aquatic Centre at Hillcrest Park","address":"4575 Clancy Loranger WayVancouver, British Columbia V5Y 2M4, Canada","country":"Canada","region":"British Columbia","city":"Vancouver","latitude":"49.24477","longitude":"-123.1082","type":"Water & Amusement Parks","neighbourhood":"West Mount Pleasant"},{"name":"Marine Building","address":"355 Burrard StreetVancouver, British Columbia V6C 2G8, Canada","country":"Canada","region":"British Columbia","city":"Vancouver","latitude":"49.28745","longitude":"-123.11698","type":"Sights & Landmarks","neighbourhood":"Waterfront / Coal Harbour"},{"name":"Granville Island","address":"1661 Duranleau StreetVancouver, British Columbia V6H 3S3, Canada","country":"Canada","region":"British Columbia","city":"Vancouver","latitude":"49.272114","longitude":"-123.13578","type":"Sights & Landmarks","neighbourhood":"West Fairview / Granville Island"},{"name":"Bloedel Conservatory","address":"4600 Cambie StVancouver, British Columbia V5Z 2Z1, Canada","country":"Canada","region":"British Columbia","city":"Vancouver","latitude":"49.24337","longitude":"-123.11731","type":"Sights & Landmarks","neighbourhood":"East Fairview / South Cambie"},{"name":"Scotiabank Field at Nat Bailey Stadium","address":"4601 Ontario StVancouver, British Columbia V5V 3H4, Canada","country":"Canada","region":"British Columbia","city":"Vancouver","latitude":"49.2432","longitude":"-123.10544","type":"Sights & Landmarks","neighbourhood":"West Kensington"},{"name":"Vancouver Aquarium","address":"845 Avison Way, Stanley ParkVancouver, British Columbia V6B 3X8, Canada","country":"Canada","region":"British Columbia","city":"Vancouver","latitude":"49.30137","longitude":"-123.12951","type":"Sights & Landmarks","neighbourhood":"Harbour Centre / Gastown /"},{"name":"University of British Columbia","address":"6163 University BoulevardVancouver, British Columbia V6T 1Z1, Canada","country":"Canada","region":"British Columbia","city":"Vancouver","latitude":"49.26585","longitude":"-123.24995","type":"Sights & Landmarks","neighbourhood":"UBC"},{"name":"Rogers Arena","address":"800 Griffiths WayVancouver, British Columbia V6B 6G1, Canada","country":"Canada","region":"British Columbia","city":"Vancouver","latitude":"49.259415","longitude":"-123.17251","type":"Sights & Landmarks","neighbourhood":"Harbour Centre / Gastown /"},{"name":"Library Square","address":"350 Georgia St WVancouver, British Columbia V6B 6B1, Canada","country":"Canada","region":"British Columbia","city":"Vancouver","latitude":"49.28","longitude":"-123.11442","type":"Sights & Landmarks","neighbourhood":"Harbour Centre / Gastown /"},{"name":"Canada Place","address":"Canada Place Building 780-999 Canada PlVancouver, British Columbia V6C 3C1, Canada","country":"Canada","region":"British Columbia","city":"Vancouver","latitude":"49.28933","longitude":"-123.10859","type":"Sights & Landmarks","neighbourhood":"Waterfront / Coal Harbour"},{"name":"Vancouver Lookout","address":"555 West Hastings StreetVancouver, British Columbia V6B 4N6, Canada","country":"Canada","region":"British Columbia","city":"Vancouver","latitude":"49.28468","longitude":"-123.11189","type":"Sights & Landmarks","neighbourhood":"Harbour Centre / Gastown /"},{"name":"B.C. Place Stadium","address":"777 Pacific BlvdVancouver, British Columbia V6B 4Y8, Canada","country":"Canada","region":"British Columbia","city":"Vancouver","latitude":"49.27596","longitude":"-123.11274","type":"Sights & Landmarks","neighbourhood":"Harbour Centre / Gastown /"},{"name":"Cathedral of Our Lady of the Holy Rosary","address":"646 Richards StVancouver, British Columbia V6B 3A3, Canada","country":"Canada","region":"British Columbia","city":"Vancouver","latitude":"49.28168","longitude":"-123.1149","type":"Sights & Landmarks","neighbourhood":"Harbour Centre / Gastown /"},{"name":"Commercial Drive","address":"1661 Napier StVancouver, British Columbia V5L 4X4, Canada","country":"Canada","region":"British Columbia","city":"Vancouver","latitude":"49.27513","longitude":"-123.06942","type":"Sights & Landmarks","neighbourhood":"North Grandview-Woodlands"},{"name":"Gastown","address":"Waterfront between Granville and Main Sts.Vancouver, British Columbia V6B 2K7, Canada","country":"Canada","region":"British Columbia","city":"Vancouver","latitude":"49.28533","longitude":"-123.11388","type":"Sights & Landmarks","neighbourhood":"Harbour Centre / Gastown /"},{"name":"Yaletown","address":"Yaletown Business Bldg. 1152 Mainland StVancouver, British Columbia V6B 4X2, Canada","country":"Canada","region":"British Columbia","city":"Vancouver","latitude":"49.27556","longitude":"-123.12053","type":"Sights & Landmarks","neighbourhood":"Harbour Centre / Gastown /"},{"name":"Steam Clock","address":"Water StVancouver, British Columbia V6B 1B8, Canada","country":"Canada","region":"British Columbia","city":"Vancouver","latitude":"49.28484","longitude":"-123.11023","type":"Sights & Landmarks","neighbourhood":"Harbour Centre / Gastown /"},{"name":"Waterfront Station","address":"601 Cordova St WVancouver, British Columbia V6B 1G1, Canada","country":"Canada","region":"British Columbia","city":"Vancouver","latitude":"49.28562","longitude":"-123.11186","type":"Sights & Landmarks","neighbourhood":"Harbour Centre / Gastown /"},{"name":"Christ Church Cathedral","address":"690 Burrard StVancouver, British Columbia V6C 2L1, Canada","country":"Canada","region":"British Columbia","city":"Vancouver","latitude":"49.28449","longitude":"-123.12033","type":"Sights & Landmarks","neighbourhood":"Waterfront / Coal Harbour"},{"name":"Digital Orca","address":"1055 Canada PlVancouver, British Columbia V6C 0C3, Canada","country":"Canada","region":"British Columbia","city":"Vancouver","latitude":"49.28971","longitude":"-123.11607","type":"Sights & Landmarks","neighbourhood":"Waterfront / Coal Harbour"},{"name":"Pacific Central Station","address":"1150 Station StVancouver, British Columbia V6A 4C7, Canada","country":"Canada","region":"British Columbia","city":"Vancouver","latitude":"49.27377","longitude":"-123.09794","type":"Sights & Landmarks","neighbourhood":"Strathcona / Chinatown"},{"name":"Olympic Village","address":"1 Athletes WayVancouver, British Columbia V5Y 0B1, Canada","country":"Canada","region":"British Columbia","city":"Vancouver","latitude":"49.27179","longitude":"-123.10571","type":"Sights & Landmarks","neighbourhood":"West Mount Pleasant"},{"name":"Museum of Anthropology","address":"6393 North West Marine Dr.Vancouver, British Columbia V6T 1Z2, Canada","country":"Canada","region":"British Columbia","city":"Vancouver","latitude":"49.269157","longitude":"-123.25896","type":"Museums","neighbourhood":"UBC"},{"name":"Bill Reid Gallery","address":"639 Hornby StVancouver, British Columbia V6C 2G3, Canada","country":"Canada","region":"British Columbia","city":"Vancouver","latitude":"49.28432","longitude":"-123.1198","type":"Museums","neighbourhood":"Waterfront / Coal Harbour"},{"name":"Science World","address":"1455 Quebec StVancouver, British Columbia V6A 3Z7, Canada","country":"Canada","region":"British Columbia","city":"Vancouver","latitude":"49.273396","longitude":"-123.10356","type":"Museums","neighbourhood":"Strathcona / Chinatown"},{"name":"Deeley Motorcycle Exhibition","address":"1875 Boundary RdVancouver, British Columbia V5M 3Y7, Canada","country":"Canada","region":"British Columbia","city":"Vancouver","latitude":"49.267826","longitude":"-123.02441","type":"Museums","neighbourhood":"South Hastings-Sunris"},{"name":"Vancouver Maritime Museum","address":"1905 Ogden AveVancouver, British Columbia V6J 1A3, Canada","country":"Canada","region":"British Columbia","city":"Vancouver","latitude":"49.27756","longitude":"-123.147354","type":"Museums","neighbourhood":"NW Shaughnessy / East Kitsilano"},{"name":"Vancouver Police Museum","address":"240 Cordova St EVancouver, British Columbia V6A 1L3, Canada","country":"Canada","region":"British Columbia","city":"Vancouver","latitude":"49.28201","longitude":"-123.098206","type":"Museums","neighbourhood":"Strathcona / Chinatown"},{"name":"Museum of Vancouver","address":"1100 Chestnut StVancouver, British Columbia V6J 3J9, Canada","country":"Canada","region":"British Columbia","city":"Vancouver","latitude":"49.27611","longitude":"-123.14436","type":"Museums","neighbourhood":"NW Shaughnessy / East Kitsilano"},{"name":"Spirit Wrestler Gallery","address":"47 Water StVancouver, British Columbia V6B 1A1, Canada","country":"Canada","region":"British Columbia","city":"Vancouver","latitude":"49.28374","longitude":"-123.10532","type":"Museums","neighbourhood":"Harbour Centre / Gastown /"},{"name":"Roedde House Museum","address":"1415 Barclay StreetVancouver, British Columbia V6G 1J6, Canada","country":"Canada","region":"British Columbia","city":"Vancouver","latitude":"49.28706","longitude":"-123.13237","type":"Museums","neighbourhood":"North West End / Stanley Park"},{"name":"Vancouver Art Gallery","address":"750 Hornby StVancouver, British Columbia V6Z 2H7, Canada","country":"Canada","region":"British Columbia","city":"Vancouver","latitude":"49.28304","longitude":"-123.12021","type":"Museums","neighbourhood":"SW Downtown"},{"name":"Beaty Biodiversity Museum","address":"2212 Main MallVancouver, British Columbia V6T 1Z4, Canada","country":"Canada","region":"British Columbia","city":"Vancouver","latitude":"49.263424","longitude":"-123.25102","type":"Museums","neighbourhood":"UBC"},{"name":"Hill's Native Art Gallery","address":"120 Broadway EVancouver, British Columbia V5T 1V9, Canada","country":"Canada","region":"British Columbia","city":"Vancouver","latitude":"49.26266","longitude":"-123.10239","type":"Museums","neighbourhood":"East Mount Pleasant"},{"name":"Stanley Park Nature House","address":"975 Lagoon DrVancouver, British Columbia V6G 2S1, Canada","country":"Canada","region":"British Columbia","city":"Vancouver","latitude":"49.294384","longitude":"-123.13785","type":"Museums","neighbourhood":"North West End / Stanley Park"},{"name":"Coastal Peoples Fine Arts Gallery","address":"332 Water StVancouver, British Columbia V6B 1B6, Canada","country":"Canada","region":"British Columbia","city":"Vancouver","latitude":"49.28423","longitude":"-123.10967","type":"Museums","neighbourhood":"Harbour Centre / Gastown /"},{"name":"BC Sports Hall of Fame","address":"777 Pacific BlvdVancouver, British Columbia V6B 4Y8, Canada","country":"Canada","region":"British Columbia","city":"Vancouver","latitude":"49.277603","longitude":"-123.11264","type":"Museums","neighbourhood":"Harbour Centre / Gastown /"},{"name":"Inuit Gallery of Vancouver","address":"206 Cambie StVancouver, British Columbia V6B 2M9, Canada","country":"Canada","region":"British Columbia","city":"Vancouver","latitude":"49.2841","longitude":"-123.10889","type":"Museums","neighbourhood":"Harbour Centre / Gastown /"},{"name":"Six Hundred Four","address":"151 Cambie StVancouver, British Columbia V6B 4R3, Canada","country":"Canada","region":"British Columbia","city":"Vancouver","latitude":"49.284492","longitude":"-123.10884","type":"Museums","neighbourhood":"Harbour Centre / Gastown /"},{"name":"Eagle Spirit Gallery","address":"1803 Maritime MewsVancouver, British Columbia V6H 3W7, Canada","country":"Canada","region":"British Columbia","city":"Vancouver","latitude":"49.271152","longitude":"-123.13621","type":"Museums","neighbourhood":"West Fairview / Granville Island"},{"name":"Chali-Rosso Art Gallery","address":"549 Howe StVancouver, British Columbia V6C 2C2, Canada","country":"Canada","region":"British Columbia","city":"Vancouver","latitude":"49.28499","longitude":"-123.11698","type":"Museums","neighbourhood":"Waterfront / Coal Harbour"},{"name":"Contemporary Art Gallery","address":"555 Nelson StVancouver, British Columbia V6B 6R5, Canada","country":"Canada","region":"British Columbia","city":"Vancouver","latitude":"49.27853","longitude":"-123.12144","type":"Museums","neighbourhood":"Harbour Centre / Gastown /"},{"name":"The Charles H. Scott Gallery","address":"1399 Johnston StVancouver, British Columbia V6H 3R9, Canada","country":"Canada","region":"British Columbia","city":"Vancouver","latitude":"49.270912","longitude":"-123.13373","type":"Museums","neighbourhood":"West Fairview / Granville Island"},{"name":"Barclay Heritage Square","address":"1440 Haro StVancouver, British Columbia V6G 1G1, Canada","country":"Canada","region":"British Columbia","city":"Vancouver","latitude":"49.28742","longitude":"-123.13155","type":"Sights & Landmarks","neighbourhood":"North West End / Stanley Park"},{"name":"Vancouver Biennale","address":"290 3rd Ave WVancouver, British Columbia V5Y 1G1, Canada","country":"Canada","region":"British Columbia","city":"Vancouver","latitude":"49.26813","longitude":"-123.11051","type":"Sights & Landmarks","neighbourhood":"West Mount Pleasant"},{"name":"Pacific Museum of the Earth","address":"6339 Stores RdVancouver, British Columbia V6T 2B4, Canada","country":"Canada","region":"British Columbia","city":"Vancouver","latitude":"49.262154","longitude":"-123.252","type":"Museums","neighbourhood":"UBC"},{"name":"The Rennie Collection","address":"51 Pender St EVancouver, British Columbia V6A 1S9, Canada","country":"Canada","region":"British Columbia","city":"Vancouver","latitude":"49.2807","longitude":"-123.10313","type":"Museums","neighbourhood":"Strathcona / Chinatown"},{"name":"Pousette Gallery","address":"404-1529 6th Ave WVancouver, British Columbia V6J 1R1, Canada","country":"Canada","region":"British Columbia","city":"Vancouver","latitude":"49.26653","longitude":"-123.13958","type":"Museums","neighbourhood":"NW Shaughnessy / East Kitsilano"},{"name":"Granville Island Gallery","address":"1494 Old Bridge StVancouver, British Columbia V6H 3S6, Canada","country":"Canada","region":"British Columbia","city":"Vancouver","latitude":"49.27013","longitude":"-123.13502","type":"Museums","neighbourhood":"West Fairview / Granville Island"},{"name":"Federation Gallery","address":"1241 Cartwright StVancouver, British Columbia V6H 4B7, Canada","country":"Canada","region":"British Columbia","city":"Vancouver","latitude":"49.26984","longitude":"-123.13276","type":"Museums","neighbourhood":"West Fairview / Granville Island"},{"name":"Fazakas Gallery","address":"145 6th Ave WVancouver, British Columbia V5Y 1K3, Canada","country":"Canada","region":"British Columbia","city":"Vancouver","latitude":"49.26588","longitude":"-123.1078","type":"Museums","neighbourhood":"West Mount Pleasant"},{"name":"Gigi B on Grandville Island","address":"12-1666 Duranleau StVancouver, British Columbia V6H 3S4, Canada","country":"Canada","region":"British Columbia","city":"Vancouver","latitude":"49.27174","longitude":"-123.1356","type":"Museums","neighbourhood":"West Fairview / Granville Island"},{"name":"Leo Mol Sculpture Garden","address":"2355 Corydon AveWinnipeg, Manitoba R3P 0N6, Canada","country":"Canada","region":"Manitoba","city":"Winnipeg","latitude":"49.86733","longitude":"-97.22952","type":"Museums","neighbourhood":"Fort Garry NW / Tuxedo"},{"name":"Canadian Museum for Human Rights","address":"85 Israel Asper WayWinnipeg, Manitoba R3C 0L5, Canada","country":"Canada","region":"Manitoba","city":"Winnipeg","latitude":"49.890617","longitude":"-97.1308","type":"Museums","neighbourhood":"Broadway / The Forks"},{"name":"Manitoba Museum","address":"190 Rupert AveWinnipeg, Manitoba R3B 0N2, Canada","country":"Canada","region":"Manitoba","city":"Winnipeg","latitude":"49.9003","longitude":"-97.1357","type":"Museums","neighbourhood":"Chinatown / Civic Centre"},{"name":"Royal Aviation Museum of Western Canada","address":"958 Ferry RdWinnipeg, Manitoba R3H 0Y8, Canada","country":"Canada","region":"Manitoba","city":"Winnipeg","latitude":"49.89563","longitude":"-97.221016","type":"Museums","neighbourhood":"St. James-Assiniboia NE / YWG"},{"name":"Winnipeg Art Gallery","address":"300 Memorial BlvdWinnipeg, Manitoba R3C 1V1, Canada","country":"Canada","region":"Manitoba","city":"Winnipeg","latitude":"49.88967","longitude":"-97.150856","type":"Museums","neighbourhood":"Broadway / The Forks"},{"name":"Manitoba Planetarium & Science Gallery","address":"190 Rupert AveWinnipeg, Manitoba R3B 0N2, Canada","country":"Canada","region":"Manitoba","city":"Winnipeg","latitude":"49.90012","longitude":"-97.135765","type":"Museums","neighbourhood":"Chinatown / Civic Centre"},{"name":"Le Musee de Saint-Boniface Museum","address":"494 Tache AveWinnipeg, Manitoba R2H 2B2, Canada","country":"Canada","region":"Manitoba","city":"Winnipeg","latitude":"49.887764","longitude":"-97.12397","type":"Sights & Landmarks","neighbourhood":"St. Boniface NW"},{"name":"Manitoba Children's Museum","address":"45 Forks Market RdWinnipeg, Manitoba R3C 4T6, Canada","country":"Canada","region":"Manitoba","city":"Winnipeg","latitude":"49.88783","longitude":"-97.1288","type":"Museums","neighbourhood":"Broadway / The Forks"},{"name":"Sir Hugh John Macdonald House Dalnavert","address":"61 Carlton StWinnipeg, Manitoba R3C 1N7, Canada","country":"Canada","region":"Manitoba","city":"Winnipeg","latitude":"49.88605","longitude":"-97.1419","type":"Sights & Landmarks","neighbourhood":"Broadway / The Forks"},{"name":"Manitoba Electrical Museum & Education Centre","address":"680 Harrow StreetWinnipeg, Manitoba R3C 2P4, Canada","country":"Canada","region":"Manitoba","city":"Winnipeg","latitude":"49.85596","longitude":"-97.15492","type":"Museums","neighbourhood":"Broadway / The Forks"},{"name":"Living Prairie Museum","address":"2795 Ness AveWinnipeg, Manitoba R3J 3S4, Canada","country":"Canada","region":"Manitoba","city":"Winnipeg","latitude":"49.88776","longitude":"-97.27179","type":"Museums","neighbourhood":"St. James-Assiniboia SE"},{"name":"Seven Oaks House Museum","address":"50 Mac StWinnipeg, Manitoba R2V 4Z9, Canada","country":"Canada","region":"Manitoba","city":"Winnipeg","latitude":"49.930214","longitude":"-97.11683","type":"Sights & Landmarks","neighbourhood":"Seven Oaks East"},{"name":"Selim's Antiques","address":"801 Corydon AveWinnipeg, Manitoba R3M 0W6, Canada","country":"Canada","region":"Manitoba","city":"Winnipeg","latitude":"49.87024","longitude":"-97.15567","type":"Museums","neighbourhood":"River Heights Central"},{"name":"Plug In Gallery","address":"460 Portage Ave Unit 1Winnipeg, Manitoba R3C 0E8, Canada","country":"Canada","region":"Manitoba","city":"Winnipeg","latitude":"49.89022","longitude":"-97.15134","type":"Museums","neighbourhood":"Broadway / The Forks"},{"name":"Manitoba Provincial Archives","address":"200 Vaughan StWinnipeg, Manitoba R3C 1T5, Canada","country":"Canada","region":"Manitoba","city":"Winnipeg","latitude":"49.88882","longitude":"-97.14863","type":"Museums","neighbourhood":"Broadway / The Forks"},{"name":"Ukrainian Cultural and Educational Centre","address":"184 Alexander AveWinnipeg, Manitoba R3B 0L6, Canada","country":"Canada","region":"Manitoba","city":"Winnipeg","latitude":"49.90113","longitude":"-97.13583","type":"Sights & Landmarks","neighbourhood":"Chinatown / Civic Centre"},{"name":"Manitoba Sports Hall of Fame","address":"145 Pacific AveWinnipeg, Manitoba R3B 2Z6, Canada","country":"Canada","region":"Manitoba","city":"Winnipeg","latitude":"49.900726","longitude":"-97.134766","type":"Museums","neighbourhood":"Chinatown / Civic Centre"},{"name":"Fort Garry Horse Museum and Archives","address":"551 Machray AveWinnipeg, Manitoba R2W 1A8, Canada","country":"Canada","region":"Manitoba","city":"Winnipeg","latitude":"49.92767","longitude":"-97.13939","type":"Museums","neighbourhood":"Point Douglas East"},{"name":"Historical Museum of St. James-Assiniboia","address":"3180 Portage AveWinnipeg, Manitoba R3K 0Y5, Canada","country":"Canada","region":"Manitoba","city":"Winnipeg","latitude":"49.88047","longitude":"-97.28825","type":"Museums","neighbourhood":"St. James-Assiniboia SW"},{"name":"Transcona Historcal Museum","address":"141 Regent Ave WWinnipeg, Manitoba R2C 1R1, Canada","country":"Canada","region":"Manitoba","city":"Winnipeg","latitude":"49.89531","longitude":"-97.00526","type":"Museums","neighbourhood":"Transcona"},{"name":"Air Force Heritage Park & Museum","address":"CFB 17 WingWinnipeg, Manitoba R3J 3Y5, Canada","country":"Canada","region":"Manitoba","city":"Winnipeg","latitude":"49.835556","longitude":"-97.062195","type":"Museums","neighbourhood":"St. James-Assiniboia SE"},{"name":"Bruce D. Campbell Farm & Food Discovery Centre","address":"1290 Research Station RoadWinnipeg, Manitoba R5A 1A1, Canada","country":"Canada","region":"Manitoba","city":"Winnipeg","latitude":"49.66474","longitude":"-97.10628","type":"Museums","neighbourhood":"St. Adolphe"},{"name":"Royal Winnipeg Rifles Regimental Museum","address":"969 St Matthews AveWinnipeg, Manitoba R3G 0J7, Canada","country":"Canada","region":"Manitoba","city":"Winnipeg","latitude":"49.89081","longitude":"-97.17884","type":"Museums","neighbourhood":"Minto / St. Mathews / Wolseley"},{"name":"Legion House Museum","address":"134 Marion StWinnipeg, Manitoba R2H 0T4, Canada","country":"Canada","region":"Manitoba","city":"Winnipeg","latitude":"49.88117","longitude":"-97.12256","type":"Museums","neighbourhood":"St. Boniface NW"},{"name":"Naval Museum of Manitoba","address":"1 Navy WayWinnipeg, Manitoba R3C 4J7, Canada","country":"Canada","region":"Manitoba","city":"Winnipeg","latitude":"49.88593","longitude":"-97.13777","type":"Museums","neighbourhood":"Broadway / The Forks"},{"name":"Ross House Museum","address":"140 Meade St NWinnipeg, Manitoba R2W 3K5, Canada","country":"Canada","region":"Manitoba","city":"Winnipeg","latitude":"49.90669","longitude":"-97.13001","type":"Museums","neighbourhood":"Point Douglas East"},{"name":"Shaw Park","address":"1 Portage Ave EWinnipeg, Manitoba R3B 3N3, Canada","country":"Canada","region":"Manitoba","city":"Winnipeg","latitude":"49.89383","longitude":"-97.13328","type":"Sights & Landmarks","neighbourhood":"Chinatown / Civic Centre"},{"name":"Manitoba Legislative Building","address":"450 BroadwayWinnipeg, Manitoba R3C 0V8, Canada","country":"Canada","region":"Manitoba","city":"Winnipeg","latitude":"49.88403","longitude":"-97.14663","type":"Sights & Landmarks","neighbourhood":"Broadway / The Forks"},{"name":"The Forks National Historic Site","address":"401-25 Forks Market RdWinnipeg, Manitoba R3C 4S8, Canada","country":"Canada","region":"Manitoba","city":"Winnipeg","latitude":"49.88875","longitude":"-97.12979","type":"Sights & Landmarks","neighbourhood":"Broadway / The Forks"},{"name":"Royal Canadian Mint","address":"520 Lagimodiere BlvdWinnipeg, Manitoba R2J 3E7, Canada","country":"Canada","region":"Manitoba","city":"Winnipeg","latitude":"49.85098","longitude":"-97.049934","type":"Sights & Landmarks","neighbourhood":"St. Boniface NE"},{"name":"Basilique-Cathedrale de Saint Boniface","address":"190 De la Cathedrale AveWinnipeg, Manitoba R2H 0H7, Canada","country":"Canada","region":"Manitoba","city":"Winnipeg","latitude":"49.88918","longitude":"-97.1223","type":"Sights & Landmarks","neighbourhood":"St. Boniface NW"},{"name":"Fort Gibraltar","address":"866 St.Joseph StreetWinnipeg, Manitoba R2H 0G4, Canada","country":"Canada","region":"Manitoba","city":"Winnipeg","latitude":"49.899143","longitude":"-97.12558","type":"Sights & Landmarks","neighbourhood":"St. Boniface NW"},{"name":"Old Market Square","address":"314-63 Albert StWinnipeg, Manitoba R3B 1G4, Canada","country":"Canada","region":"Manitoba","city":"Winnipeg","latitude":"49.89659","longitude":"-97.13995","type":"Sights & Landmarks","neighbourhood":"Chinatown / Civic Centre"},{"name":"Le Musee de Saint-Boniface Museum","address":"494 Tache AveWinnipeg, Manitoba R2H 2B2, Canada","country":"Canada","region":"Manitoba","city":"Winnipeg","latitude":"49.887764","longitude":"-97.12397","type":"Sights & Landmarks","neighbourhood":"St. Boniface NW"},{"name":"Travel Manitoba Visitor Information Centre","address":"21 Forks Market RoadWinnipeg, Manitoba R3C 4T7, Canada","country":"Canada","region":"Manitoba","city":"Winnipeg","latitude":"49.887505","longitude":"-97.13062","type":"Sights & Landmarks","neighbourhood":"Broadway / The Forks"},{"name":"Investors Group Field","address":"315 Chancellor Matheson RdWinnipeg, Manitoba R3T 1Z2, Canada","country":"Canada","region":"Manitoba","city":"Winnipeg","latitude":"49.80796","longitude":"-97.14302","type":"Sights & Landmarks","neighbourhood":"Fort Garry NE / University of Manitoba"},{"name":"Sir Hugh John Macdonald House Dalnavert","address":"61 Carlton StWinnipeg, Manitoba R3C 1N7, Canada","country":"Canada","region":"Manitoba","city":"Winnipeg","latitude":"49.88605","longitude":"-97.1419","type":"Sights & Landmarks","neighbourhood":"Broadway / The Forks"},{"name":"Trappist Monastery","address":"80 Des Ruines du Monastere StWinnipeg, Manitoba R3V 0B1, Canada","country":"Canada","region":"Manitoba","city":"Winnipeg","latitude":"49.75531","longitude":"-97.15557","type":"Sights & Landmarks","neighbourhood":"Fort Garry South"},{"name":"Seven Oaks House Museum","address":"50 Mac StWinnipeg, Manitoba R2V 4Z9, Canada","country":"Canada","region":"Manitoba","city":"Winnipeg","latitude":"49.930214","longitude":"-97.11683","type":"Sights & Landmarks","neighbourhood":"Seven Oaks East"},{"name":"Riel House National Historic Site","address":"330 River RdWinnipeg, Manitoba R2M 3Z8, Canada","country":"Canada","region":"Manitoba","city":"Winnipeg","latitude":"49.81913","longitude":"-97.13636","type":"Sights & Landmarks","neighbourhood":"St. Vital North"},{"name":"Grant's Old Mill","address":"2777 Portage AveWinnipeg, Manitoba R3J 3S5, Canada","country":"Canada","region":"Manitoba","city":"Winnipeg","latitude":"49.87898","longitude":"-97.27526","type":"Sights & Landmarks","neighbourhood":"St. James-Assiniboia SE"},