{"filter_array":[{"name":"Fantasy Fair at Woodbine Centre","address":"500 Rexdale BlvdToronto, Ontario M9W 6K5, Canada","country":"Canada","region":"Ontario","city":"Toronto","latitude":"43.72048","longitude":"-79.59997","type":"Water & Amusement Parks","neighbourhood":"M9W 6K5"},{"name":"Kidstown Water Park","address":"3159 Birchmount RoadToronto, Ontario, Canada","country":"Canada","region":"Ontario","city":"Toronto","latitude":"43.80805","longitude":"-79.3105","type":"Water & Amusement Parks"},{"name":"Centreville Theme Park","address":"21 Avenue Of The IslandsToronto, Ontario M5J 1A1, Canada","country":"Canada","region":"Ontario","city":"Toronto","latitude":"43.618195","longitude":"-79.37269","type":"Water & Amusement Parks","neighbourhood":"M5J 1A1"},{"name":"Ripley's Aquarium Of Canada","address":"288 Bremner BoulevardToronto, Ontario M5V 3L9, Canada","country":"Canada","region":"Ontario","city":"Toronto","latitude":"43.6425","longitude":"-79.386","type":"Zoos & Aquariums","neighbourhood":"M5V 3L9"},{"name":"High Park Zoo","address":"25 Penn DrToronto, Ontario M9L 2A7, Canada","country":"Canada","region":"Ontario","city":"Toronto","latitude":"43.75101","longitude":"-79.55508","type":"Zoos & Aquariums","neighbourhood":"M9L 2A7"},{"name":"Toronto Islands","address":"9 Queens Quay West, Jack Layton Ferry TerminalToronto, Ontario M5J 2H3, Canada","country":"Canada","region":"Ontario","city":"Toronto","latitude":"43.62189","longitude":"-79.37876","type":"Nature & Parks","neighbourhood":"M5J 2H3"},{"name":"Far Enough Farm","address":"Centre IslandToronto, Ontario M8Z 2T7, Canada","country":"Canada","region":"Ontario","city":"Toronto","latitude":"43.62043","longitude":"-79.37391","type":"Zoos & Aquariums","neighbourhood":"M8Z 2T7"},{"name":"Ripley's Aquarium Of Canada","address":"288 Bremner BoulevardToronto, Ontario M5V 3L9, Canada","country":"Canada","region":"Ontario","city":"Toronto","latitude":"43.6425","longitude":"-79.386","type":"Zoos & Aquariums","neighbourhood":"M5V 3L9"},{"name":"Toronto Zoo","address":"2000 Meadowvale RdToronto, Ontario M1B 5K7, Canada","country":"Canada","region":"Ontario","city":"Toronto","latitude":"43.82387","longitude":"-79.1783","type":"Zoos & Aquariums","neighbourhood":"M1B 5K7"},{"name":"High Park","address":"1873 Bloor St WToronto, Ontario M6R 2Z3, Canada","country":"Canada","region":"Ontario","city":"Toronto","latitude":"43.65357","longitude":"-79.46405","type":"Nature & Parks","neighbourhood":"M6R 2Z3"},{"name":"Wards Island","address":"Cibola AvenueToronto, Ontario, Canada","country":"Canada","region":"Ontario","city":"Toronto","latitude":"43.62877","longitude":"-79.35539","type":"Nature & Parks"},{"name":"Centre Island","address":"Toronto, Ontario, Canada","country":"Canada","region":"Ontario","city":"Toronto","latitude":"43.620117","longitude":"-79.37507","type":"Nature & Parks"},{"name":"Edwards Gardens","address":"Lawrence Ave. E. and Leslie St.Toronto, Ontario, Canada","country":"Canada","region":"Ontario","city":"Toronto","latitude":"43.72225","longitude":"-79.41561","type":"Nature & Parks"},{"name":"Allan Gardens Conservatory","address":"19 Horticultural AveToronto, Ontario M5A 2P2, Canada","country":"Canada","region":"Ontario","city":"Toronto","latitude":"43.66095","longitude":"-79.37471","type":"Nature & Parks","neighbourhood":"M5A 2P2"},{"name":"Toronto Zoo","address":"2000 Meadowvale RdToronto, Ontario M1B 5K7, Canada","country":"Canada","region":"Ontario","city":"Toronto","latitude":"43.82387","longitude":"-79.1783","type":"Zoos & Aquariums","neighbourhood":"M1B 5K7"},{"name":"Tommy Thompson Park","address":"Toronto Outer HarbourToronto, Ontario, Canada","country":"Canada","region":"Ontario","city":"Toronto","latitude":"43.64161","longitude":"-79.37895","type":"Nature & Parks"},{"name":"Queen's Park","address":"College St. & University Ave.Toronto, Ontario, Canada","country":"Canada","region":"Ontario","city":"Toronto","latitude":"43.65971","longitude":"-79.39077","type":"Sights & Landmarks"},{"name":"Bluffers Park","address":"1 Brimley Road SouthToronto, Ontario, Canada","country":"Canada","region":"Ontario","city":"Toronto","latitude":"43.7062","longitude":"-79.23493","type":"Nature & Parks"},{"name":"Toronto Music Garden","address":"475 Queen's Quay WToronto, Ontario, Canada","country":"Canada","region":"Ontario","city":"Toronto","latitude":"43.64827","longitude":"-79.39756","type":"Nature & Parks"},{"name":"Toronto Beach","address":"Toronto, Ontario, Canada","country":"Canada","region":"Ontario","city":"Toronto","latitude":"43.669098","longitude":"-79.426704","type":"Nature & Parks"},{"name":"Trinity Bellwoods Park","address":"790 Queen St WToronto, Ontario M5H 2N2, Canada","country":"Canada","region":"Ontario","city":"Toronto","latitude":"43.64524","longitude":"-79.41374","type":"Nature & Parks","neighbourhood":"M5H 2N2"},{"name":"Humber Bay Park","address":"100 Humber Bay Park Rd WToronto, Ontario M8V 3X7, Canada","country":"Canada","region":"Ontario","city":"Toronto","latitude":"43.61901","longitude":"-79.48055","type":"Nature & Parks","neighbourhood":"M8V 3X7"},{"name":"Woodbine Park","address":"1695 Queen St EToronto, Ontario M4L 1G7, Canada","country":"Canada","region":"Ontario","city":"Toronto","latitude":"43.66695","longitude":"-79.31179","type":"Nature & Parks","neighbourhood":"M4L 1G7"},{"name":"Toronto Botanical Garden","address":"777 Lawrence Ave EToronto, Ontario M3C 1P2, Canada","country":"Canada","region":"Ontario","city":"Toronto","latitude":"43.73434","longitude":"-79.35862","type":"Nature & Parks","neighbourhood":"M3C 1P2"},{"name":"Waterfront Trail : 1000 Islands","address":"North Shore of Lake Ontario & The St Lawrence RiverToronto, Ontario, Canada","country":"Canada","region":"Ontario","city":"Toronto","latitude":"43.655087","longitude":"-79.3558","type":"Nature & Parks"},{"name":"Hanlan's Point Beach","address":"Toronto, Ontario, Canada","country":"Canada","region":"Ontario","city":"Toronto","latitude":"43.627884","longitude":"-79.38918","type":"Nature & Parks"},{"name":"Centennial Park Greenhouse","address":"151 Elmcrest RoadToronto, Ontario, Canada","country":"Canada","region":"Ontario","city":"Toronto","latitude":"43.64947","longitude":"-79.5883","type":"Nature & Parks"},{"name":"Canada's Sugar Beach","address":"25 Dockside DrToronto, Ontario M5A 0B5, Canada","country":"Canada","region":"Ontario","city":"Toronto","latitude":"43.64365","longitude":"-79.36633","type":"Nature & Parks","neighbourhood":"M5A 0B5"},{"name":"Ashbridge's Bay Park","address":"Lakeshore Blvd. E.Toronto, Ontario M4M 1B4, Canada","country":"Canada","region":"Ontario","city":"Toronto","latitude":"43.65852","longitude":"-79.32965","type":"Nature & Parks","neighbourhood":"M4M 1B4"},{"name":"Berczy Park","address":"35 Wellington Street EastToronto, Ontario M5E 1C6, Canada","country":"Canada","region":"Ontario","city":"Toronto","latitude":"43.64811","longitude":"-79.37517","type":"Nature & Parks","neighbourhood":"M5E 1C6"},{"name":"Rouge Park Conservation Area","address":"Sheppard and MeadowvaleToronto, Ontario L4G 0L8, Canada","country":"Canada","region":"Ontario","city":"Toronto","latitude":"43.62908","longitude":"-79.73888","type":"Nature & Parks","neighbourhood":"L4G 0L8"},{"name":"Colonel Sam Smith Park","address":"3145 Lake Shore Boulevard West, EtobicokeToronto, Ontario M8V 1L4, Canada","country":"Canada","region":"Ontario","city":"Toronto","latitude":"43.5981","longitude":"-79.51524","type":"Nature & Parks","neighbourhood":"M8V 1L4"},{"name":"Rosetta McClain Gardens","address":"5 Glen Everest RdToronto, Ontario M1N 1J2, Canada","country":"Canada","region":"Ontario","city":"Toronto","latitude":"43.69685","longitude":"-79.25625","type":"Nature & Parks","neighbourhood":"M1N 1J2"},{"name":"Guild Park","address":"201 Guildwood ParkwayToronto, Ontario M1E 1P5, Canada","country":"Canada","region":"Ontario","city":"Toronto","latitude":"43.74916","longitude":"-79.19069","type":"Nature & Parks","neighbourhood":"M1E 1P5"},{"name":"Kay Gardner Beltline Trail","address":"Allen Road to Mount Pleasant RoadToronto, Ontario, Canada","country":"Canada","region":"Ontario","city":"Toronto","latitude":"43.69569","longitude":"-79.38548","type":"Nature & Parks"},{"name":"Sunnyside Park","address":"Lakeshore Blvd.Toronto, Ontario, Canada","country":"Canada","region":"Ontario","city":"Toronto","latitude":"43.63697","longitude":"-79.44985","type":"Nature & Parks"},{"name":"St. Lawrence Market","address":"92-95 Front St. E.Toronto, Ontario M5E 1C4, Canada","country":"Canada","region":"Ontario","city":"Toronto","latitude":"43.64877","longitude":"-79.37164","type":"Sights & Landmarks","neighbourhood":"M5E 1C4"},{"name":"Toronto Public Library","address":"789 Yonge St.Toronto, Ontario, Canada","country":"Canada","region":"Ontario","city":"Toronto","latitude":"43.67174","longitude":"-79.38738","type":"Sights & Landmarks"},{"name":"Kew Gardens","address":"2075 Queen St EToronto, Ontario M4L 1J1, Canada","country":"Canada","region":"Ontario","city":"Toronto","latitude":"43.66999","longitude":"-79.29925","type":"Nature & Parks","neighbourhood":"M4L 1J1"},{"name":"Royal Conservatory of Music","address":"273 Bloor St WToronto, Ontario M5S 1W2, Canada","country":"Canada","region":"Ontario","city":"Toronto","latitude":"43.66786","longitude":"-79.39602","type":"Sights & Landmarks","neighbourhood":"M5S 1W2"},{"name":"CN Tower","address":"301 Front St WToronto, Ontario M5V 2T6, Canada","country":"Canada","region":"Ontario","city":"Toronto","latitude":"43.6426","longitude":"-79.3871","type":"Sights & Landmarks","neighbourhood":"M5V 2T6"},{"name":"Escape Casa Loma: Secret City Adventures","address":"1 Austin TerrToronto, Ontario M5R 1X8, Canada","country":"Canada","region":"Ontario","city":"Toronto","latitude":"43.67811","longitude":"-79.40948","type":"Sights & Landmarks","neighbourhood":"M5R 1X8"},{"name":"University of Toronto","address":"27 King's College CirToronto, Ontario M5S 1A1, Canada","country":"Canada","region":"Ontario","city":"Toronto","latitude":"43.66095","longitude":"-79.39605","type":"Sights & Landmarks","neighbourhood":"M5S 1A1"},{"name":"The Air Canada Centre","address":"40 Bay StToronto, Ontario M5J 2X2, Canada","country":"Canada","region":"Ontario","city":"Toronto","latitude":"43.64344","longitude":"-79.37896","type":"Sights & Landmarks","neighbourhood":"M5J 2X2"},{"name":"Distillery Historic District","address":"55 Mill StToronto, Ontario M5A 3C4, Canada","country":"Canada","region":"Ontario","city":"Toronto","latitude":"43.65067","longitude":"-79.35905","type":"Sights & Landmarks","neighbourhood":"M5A 3C4"},{"name":"Scarborough Bluffs","address":"1 Brimley Rd SToronto, Ontario M1M 3W3, Canada","country":"Canada","region":"Ontario","city":"Toronto","latitude":"43.7062","longitude":"-79.23493","type":"Sights & Landmarks","neighbourhood":"M1M 3W3"},{"name":"Spadina Museum","address":"285 Spadina RdToronto, Ontario M5R 2V5, Canada","country":"Canada","region":"Ontario","city":"Toronto","latitude":"43.67903","longitude":"-79.40829","type":"Sights & Landmarks","neighbourhood":"M5R 2V5"},{"name":"Rogers Centre","address":"3200-1 Blue Jays WayToronto, Ontario M5V 1J1, Canada","country":"Canada","region":"Ontario","city":"Toronto","latitude":"43.64203","longitude":"-79.3906","type":"Sights & Landmarks","neighbourhood":"M5V 1J1"},{"name":"West Queen West","address":"Toronto, Ontario, Canada","country":"Canada","region":"Ontario","city":"Toronto","latitude":"43.64569","longitude":"-79.41149","type":"Sights & Landmarks"},{"name":"The Beach Village","address":"1971 Queen St EToronto, Ontario M4L 1H9, Canada","country":"Canada","region":"Ontario","city":"Toronto","latitude":"43.66949","longitude":"-79.30114","type":"Sights & Landmarks","neighbourhood":"M4L 1H9"},{"name":"The Elgin & Winter Garden Theatre Centre","address":"189 Yonge StToronto, Ontario M5B 1M4, Canada","country":"Canada","region":"Ontario","city":"Toronto","latitude":"43.65306","longitude":"-79.37916","type":"Sights & Landmarks","neighbourhood":"M5B 1M4"},{"name":"Nathan Phillips Square","address":"100 Queen St WToronto, Ontario M5H 2N1, Canada","country":"Canada","region":"Ontario","city":"Toronto","latitude":"43.65257","longitude":"-79.38371","type":"Sights & Landmarks","neighbourhood":"M5H 2N1"},{"name":"Bloor West Village","address":"Bloor St. W.Toronto, Ontario M6S 1N8, Canada","country":"Canada","region":"Ontario","city":"Toronto","latitude":"43.65085","longitude":"-79.47757","type":"Sights & Landmarks","neighbourhood":"M6S 1N8"},{"name":"Toronto Harbour","address":"Bathurst to LeslieToronto, Ontario, Canada","country":"Canada","region":"Ontario","city":"Toronto","latitude":"43.68323","longitude":"-79.41834","type":"Sights & Landmarks"},{"name":"St James Anglican Cathedral","address":"65 Church StToronto, Ontario M5C 2E9, Canada","country":"Canada","region":"Ontario","city":"Toronto","latitude":"43.65027","longitude":"-79.37431","type":"Sights & Landmarks","neighbourhood":"M5C 2E9"},{"name":"Queen Street","address":"Queen StreetToronto, Ontario, Canada","country":"Canada","region":"Ontario","city":"Toronto","latitude":"43.66031","longitude":"-79.34261","type":"Sights & Landmarks"},{"name":"Casa Loma","address":"1 Austin TerraceToronto, Ontario M5R 1X8, Canada","country":"Canada","region":"Ontario","city":"Toronto","latitude":"43.67883","longitude":"-79.40874","type":"Sights & Landmarks","neighbourhood":"M5R 1X8"},{"name":"New City Hall","address":"New City Hall-Metro 100 Queen St WToronto, Ontario M5H 2N1, Canada","country":"Canada","region":"Ontario","city":"Toronto","latitude":"43.651672","longitude":"-79.38333","type":"Sights & Landmarks","neighbourhood":"M5H 2N1"},{"name":"Old City Hall","address":"60 Queen St WToronto, Ontario M5H 2M3, Canada","country":"Canada","region":"Ontario","city":"Toronto","latitude":"43.6521","longitude":"-79.38171","type":"Sights & Landmarks","neighbourhood":"M5H 2M3"},{"name":"Black Creek Pioneer Village","address":"1000 Murray Ross PkyToronto, Ontario M3J 2P3, Canada","country":"Canada","region":"Ontario","city":"Toronto","latitude":"43.77327","longitude":"-79.51662","type":"Sights & Landmarks","neighbourhood":"M3J 2P3"},{"name":"Harbourfront Centre","address":"235 Queens Quay WToronto, Ontario M5J 2G8, Canada","country":"Canada","region":"Ontario","city":"Toronto","latitude":"43.63923","longitude":"-79.38307","type":"Sights & Landmarks","neighbourhood":"M5J 2G8"},{"name":"Yorkville","address":"Bordered by Avenue Rd.Toronto, Ontario, Canada","country":"Canada","region":"Ontario","city":"Toronto","latitude":"43.72047","longitude":"-79.41507","type":"Sights & Landmarks"},{"name":"Evergreen Brick Works","address":"550 Bayview AveToronto, Ontario M4W 3X8, Canada","country":"Canada","region":"Ontario","city":"Toronto","latitude":"43.68378","longitude":"-79.36559","type":"Sights & Landmarks","neighbourhood":"M4W 3X8"},{"name":"Kensington Market and Spadina Avenue","address":"Bounded by Dundas St., Spadina Ave., Baldwin St., and Augusta Ave.Toronto, Ontario, Canada","country":"Canada","region":"Ontario","city":"Toronto","latitude":"43.6545","longitude":"-79.40199","type":"Sights & Landmarks"},{"name":"Greektown on the Danforth","address":"1675 Danforth AveToronto, Ontario M4C 5P2, Canada","country":"Canada","region":"Ontario","city":"Toronto","latitude":"43.68364","longitude":"-79.32131","type":"Sights & Landmarks","neighbourhood":"M4C 5P2"},{"name":"Queen's Park","address":"College St. & University Ave.Toronto, Ontario, Canada","country":"Canada","region":"Ontario","city":"Toronto","latitude":"43.65971","longitude":"-79.39077","type":"Sights & Landmarks"},{"name":"Mount Pleasant Cemetery","address":"375 Mount Pleasant RdToronto, Ontario M4T 2V8, Canada","country":"Canada","region":"Ontario","city":"Toronto","latitude":"43.69539","longitude":"-79.38488","type":"Sights & Landmarks","neighbourhood":"M4T 2V8"},{"name":"The AGO, Art Gallery of Ontario","address":"317 Dundas St WToronto, Ontario M5T 1G4, Canada","country":"Canada","region":"Ontario","city":"Toronto","latitude":"43.65391","longitude":"-79.39269","type":"Museums","neighbourhood":"M5T 1G4"},{"name":"Aga Khan Museum","address":"77 Wynford DrToronto, Ontario M3C 1K1, Canada","country":"Canada","region":"Ontario","city":"Toronto","latitude":"43.725105","longitude":"-79.33207","type":"Museums","neighbourhood":"M3C 1K1"},{"name":"Royal Ontario Museum","address":"100 Queen's PkToronto, Ontario M5S 2C6, Canada","country":"Canada","region":"Ontario","city":"Toronto","latitude":"43.668312","longitude":"-79.39485","type":"Museums","neighbourhood":"M5S 2C6"},{"name":"Spadina Museum","address":"285 Spadina RdToronto, Ontario M5R 2V5, Canada","country":"Canada","region":"Ontario","city":"Toronto","latitude":"43.67903","longitude":"-79.40829","type":"Sights & Landmarks","neighbourhood":"M5R 2V5"},{"name":"Hockey Hall of Fame","address":"Brookfield Place - Concourse LevelToronto, Ontario M5E 1X8, Canada","country":"Canada","region":"Ontario","city":"Toronto","latitude":"43.646942","longitude":"-79.37749","type":"Museums","neighbourhood":"M5E 1X8"},{"name":"Bata Shoe Museum","address":"327 Bloor St WToronto, Ontario M5S 1W7, Canada","country":"Canada","region":"Ontario","city":"Toronto","latitude":"43.667408","longitude":"-79.39998","type":"Museums","neighbourhood":"M5S 1W7"},{"name":"Gardiner Museum","address":"111 Queen's PkToronto, Ontario M5S 2C7, Canada","country":"Canada","region":"Ontario","city":"Toronto","latitude":"43.668083","longitude":"-79.39314","type":"Museums","neighbourhood":"M5S 2C7"},{"name":"Ontario Science Centre","address":"770 Don Mills RdToronto, Ontario M3C 1T3, Canada","country":"Canada","region":"Ontario","city":"Toronto","latitude":"43.715115","longitude":"-79.33961","type":"Museums","neighbourhood":"M3C 1T3"},{"name":"Casa Loma","address":"1 Austin TerraceToronto, Ontario M5R 1X8, Canada","country":"Canada","region":"Ontario","city":"Toronto","latitude":"43.67883","longitude":"-79.40874","type":"Sights & Landmarks","neighbourhood":"M5R 1X8"},{"name":"Brookfield Place","address":"181 Bay StToronto, Ontario M5J 2T3, Canada","country":"Canada","region":"Ontario","city":"Toronto","latitude":"43.64721","longitude":"-79.37933","type":"Sights & Landmarks","neighbourhood":"M5J 2T3"},{"name":"Fort York National Historic Site","address":"250 Fort York BlvdToronto, Ontario M5V 3K9, Canada","country":"Canada","region":"Ontario","city":"Toronto","latitude":"43.637314","longitude":"-79.40659","type":"Museums","neighbourhood":"M5V 3K9"},{"name":"Mackenzie House","address":"82 Bond StToronto, Ontario M5B 1X2, Canada","country":"Canada","region":"Ontario","city":"Toronto","latitude":"43.65568","longitude":"-79.37841","type":"Sights & Landmarks","neighbourhood":"M5B 1X2"},{"name":"Toronto's First Post Office","address":"260 Adelaide St EToronto, Ontario M5A 1N1, Canada","country":"Canada","region":"Ontario","city":"Toronto","latitude":"43.65191","longitude":"-79.3705","type":"Sights & Landmarks","neighbourhood":"M5A 1N1"},{"name":"Toronto Railway Museum","address":"255 Bremner Blvd Unit 15Toronto, Ontario M5V 3M9, Canada","country":"Canada","region":"Ontario","city":"Toronto","latitude":"43.640724","longitude":"-79.38595","type":"Museums","neighbourhood":"M5V 3M9"},{"name":"Colborne Lodge","address":"11 Colborne Lodge Dr.Toronto, Ontario M5H 2N2, Canada","country":"Canada","region":"Ontario","city":"Toronto","latitude":"43.640385","longitude":"-79.45998","type":"Sights & Landmarks","neighbourhood":"M5H 2N2"},{"name":"Textile Museum of Canada","address":"55 Centre AveToronto, Ontario M5G 2H5, Canada","country":"Canada","region":"Ontario","city":"Toronto","latitude":"43.65458","longitude":"-79.38661","type":"Museums","neighbourhood":"M5G 2H5"},{"name":"Toronto Dominion Gallery of Inuit Art","address":"79 Wellington St WToronto, Ontario M5K 1A1, Canada","country":"Canada","region":"Ontario","city":"Toronto","latitude":"43.64699","longitude":"-79.38127","type":"Museums","neighbourhood":"M5K 1A1"},{"name":"Campbell House Museum","address":"160 Queen St WToronto, Ontario M5H 3H3, Canada","country":"Canada","region":"Ontario","city":"Toronto","latitude":"43.65086","longitude":"-79.38681","type":"Museums","neighbourhood":"M5H 3H3"},{"name":"Toronto Police Museum","address":"40 College StToronto, Ontario M5G 2J3, Canada","country":"Canada","region":"Ontario","city":"Toronto","latitude":"43.660664","longitude":"-79.38447","type":"Museums","neighbourhood":"M5G 2J3"},{"name":"Purina Pawsway","address":"245 Queens Quay WToronto, Ontario M5J 2K9, Canada","country":"Canada","region":"Ontario","city":"Toronto","latitude":"43.63889","longitude":"-79.38523","type":"Museums","neighbourhood":"M5J 2K9"},{"name":"The Power Plant","address":"231 Queens Quay WToronto, Ontario M5J 2G8, Canada","country":"Canada","region":"Ontario","city":"Toronto","latitude":"43.63867","longitude":"-79.38212","type":"Museums","neighbourhood":"M5J 2G8"}]}